City_ID,City,Lat,Lng,Max Temp,Humidity,Cloudiness,Wind Speed,Country,Date
0,tiksi,71.6872,128.8694,2.16,81,100,5.75,RU,2024-09-15 04:24:54
1,inongo,-1.95,18.2667,20.37,98,45,1.72,CD,2024-09-15 04:24:55
2,port-aux-francais,-49.35,70.2167,0.56,63,90,14.13,TF,2024-09-15 04:24:56
3,puerto natales,-51.7236,-72.4875,2.91,93,62,7.35,CL,2024-09-15 04:24:57
4,recreo,-29.2818,-65.061,15.79,32,100,5.03,AR,2024-09-15 04:24:59
5,birobidzhan,48.8,132.95,19.8,37,29,3.8,RU,2024-09-15 04:25:00
6,hawaiian paradise park,19.5933,-154.9731,25.73,81,0,2.06,US,2024-09-15 04:25:01
7,nemuro,43.3236,145.575,16.86,89,100,5.28,JP,2024-09-15 04:25:02
8,ancud,-41.8697,-73.8203,7.53,90,83,2.32,CL,2024-09-15 04:25:03
9,kapuskasing,49.4169,-82.4331,18.0,82,40,2.06,CA,2024-09-15 04:25:04
10,colares,38.7992,-9.4469,21.88,59,68,4.97,PT,2024-09-15 04:25:05
11,georgetown,5.4112,100.3354,30.97,67,20,2.57,MY,2024-09-15 04:25:06
12,kupang,-10.1667,123.5833,37.32,14,20,8.23,ID,2024-09-15 04:25:07
13,hermanus,-34.4187,19.2345,10.45,89,74,4.7,ZA,2024-09-15 04:25:08
14,havelian,34.0536,73.1657,25.68,54,2,1.13,PK,2024-09-15 04:25:09
15,lebu,-37.6167,-73.65,8.53,81,92,6.39,CL,2024-09-15 04:25:11
16,el nido,11.1858,119.3956,25.64,94,100,1.34,PH,2024-09-15 04:25:12
17,ad dilam,23.9915,47.1627,30.22,27,1,2.58,SA,2024-09-15 04:25:13
18,carnarvon,-24.8667,113.6333,28.39,26,0,8.34,AU,2024-09-15 04:25:14
19,bredasdorp,-34.5322,20.0403,11.24,92,52,2.11,ZA,2024-09-15 04:25:15
20,afaahiti,-17.75,-149.2833,24.23,86,26,4.67,PF,2024-09-15 04:25:16
21,margaret river,-33.95,115.0667,19.1,42,0,4.15,AU,2024-09-15 04:24:27
22,itacarambi,-15.1022,-44.0919,22.04,43,3,0.7,BR,2024-09-15 04:25:18
23,ilulissat,69.2167,-51.1,-0.99,100,100,0.0,GL,2024-09-15 04:25:20
24,hadibu,12.65,54.0333,25.62,83,83,8.49,YE,2024-09-15 04:25:21
25,adamstown,-25.066,-130.1015,19.71,70,59,6.62,PN,2024-09-15 04:25:23
26,mukalla,14.5425,49.1242,27.23,78,95,2.07,YE,2024-09-15 04:25:24
27,polyarnyy,69.1989,33.4478,9.83,83,100,0.93,RU,2024-09-15 04:25:25
28,ust-nera,64.5667,143.2,6.35,72,89,3.23,RU,2024-09-15 04:25:26
29,edinburgh of the seven seas,-37.0676,-12.3116,12.71,80,53,7.86,SH,2024-09-15 04:25:27
30,blackmans bay,-43.0167,147.3167,11.07,58,71,0.89,AU,2024-09-15 04:25:28
31,waitangi,-43.9535,-176.5597,11.01,98,100,3.58,NZ,2024-09-15 04:25:29
32,aquiraz,-3.9014,-38.3911,26.05,81,11,6.11,BR,2024-09-15 04:25:30
33,bandon,51.7469,-8.7425,14.77,97,100,6.41,IE,2024-09-15 04:25:31
34,stanley,54.868,-1.6985,14.04,84,75,3.6,GB,2024-09-15 04:25:32
35,guayaramerin,-10.8368,-65.3614,27.5,30,39,0.94,BO,2024-09-15 04:25:33
36,kununurra,-15.7667,128.7333,34.99,12,8,3.6,AU,2024-09-15 04:24:25
37,albany,42.6001,-73.9662,18.58,73,3,1.1,US,2024-09-15 04:25:36
38,lazaro cardenas,17.9583,-102.2,27.52,82,100,1.47,MX,2024-09-15 04:25:37
39,port elizabeth,-33.918,25.5701,16.84,96,100,3.6,ZA,2024-09-15 04:25:38
40,tindwari,25.6167,80.5333,29.87,62,54,4.97,IN,2024-09-15 04:25:39
41,puerto ayora,-0.7393,-90.3518,20.86,97,67,1.79,EC,2024-09-15 04:25:40
42,ushuaia,-54.8,-68.3,1.81,93,20,1.54,AR,2024-09-15 04:25:41
43,port alfred,-33.5906,26.891,15.66,93,92,0.45,ZA,2024-09-15 04:25:42
44,vorgashor,67.5833,63.95,14.45,83,22,6.3,RU,2024-09-15 04:25:43
45,bakanas,44.8081,76.2772,16.82,33,5,7.06,KZ,2024-09-15 04:25:44
46,ribeira grande,38.5167,-28.7,20.43,86,7,2.24,PT,2024-09-15 04:25:45
47,grytviken,-54.2811,-36.5092,-2.11,76,20,5.27,GS,2024-09-15 04:25:46
48,walvis bay,-22.9575,14.5053,10.64,92,2,5.51,NA,2024-09-15 04:25:48
49,iqaluit,63.7506,-68.5145,1.85,93,20,1.03,CA,2024-09-15 04:25:49
50,berezovyy,51.6667,135.7,19.42,33,4,1.02,RU,2024-09-15 04:25:50
51,banda aceh,5.5577,95.3222,29.97,63,100,7.62,ID,2024-09-15 04:25:51
52,dongcun,36.7767,121.1597,24.2,63,0,2.65,CN,2024-09-15 04:25:52
53,qamdo,31.1667,97.2333,16.78,41,38,1.99,CN,2024-09-15 04:25:53
54,cabo san lucas,22.8909,-109.9124,25.42,91,33,3.58,MX,2024-09-15 04:22:14
55,madison heights,42.4859,-83.1052,20.98,78,0,2.06,US,2024-09-15 04:25:55
56,vadso,70.0744,29.7487,6.09,93,100,1.54,NO,2024-09-15 04:25:57
57,aswan,24.0934,32.907,26.61,47,0,2.57,EG,2024-09-15 04:25:59
58,genhe,50.7833,121.5167,19.3,41,51,3.62,CN,2024-09-15 04:26:00
59,saipan,15.1355,145.701,30.39,79,75,8.23,MP,2024-09-15 04:26:01
60,ladhewala waraich,32.1566,74.117,29.76,57,0,0.91,PK,2024-09-15 04:26:02
61,west island,-12.1568,96.8225,28.99,70,98,6.17,CC,2024-09-15 04:26:03
62,monte alegre,-2.0078,-54.0692,26.13,60,4,1.54,BR,2024-09-15 04:26:04
63,punta arenas,-53.15,-70.9167,3.06,87,40,12.35,CL,2024-09-15 04:26:05
64,tazovsky,67.4667,78.7,3.32,58,31,1.68,RU,2024-09-15 04:26:06
65,rikaze,29.25,88.8833,16.98,35,41,0.63,CN,2024-09-15 04:26:07
66,nova sintra,14.8667,-24.7167,25.99,75,51,5.62,CV,2024-09-15 04:26:10
67,korsakov,46.6328,142.7813,19.91,56,4,5.52,RU,2024-09-15 04:26:11
68,bafq,31.6128,55.4107,24.4,29,11,5.06,IR,2024-09-15 04:26:12
69,codrington,-38.2667,141.9667,11.8,57,45,5.71,AU,2024-09-15 04:26:13
70,port colborne,42.9001,-79.2329,18.87,95,0,3.62,CA,2024-09-15 04:26:14
71,klyuchi,52.2667,79.1667,15.87,69,14,4.95,RU,2024-09-15 04:26:15
72,bethel,41.3712,-73.414,18.85,92,0,0.0,US,2024-09-15 04:26:16
73,yellowknife,62.456,-114.3525,12.45,83,75,2.57,CA,2024-09-15 04:26:17
74,conception bay south,47.4999,-52.9981,10.97,84,100,8.14,CA,2024-09-15 04:26:18
75,la sarre,48.8002,-79.1996,17.38,83,94,2.88,CA,2024-09-15 04:26:20
76,tazacorte,28.629,-17.9293,22.54,68,100,5.14,ES,2024-09-15 04:26:21
77,papatowai,-46.5619,169.4708,4.95,98,100,4.15,NZ,2024-09-15 04:26:22
78,arraial do cabo,-22.9661,-42.0278,21.78,91,43,1.63,BR,2024-09-15 04:26:23
79,baidoa,3.1138,43.6498,21.0,82,14,6.34,SO,2024-09-15 04:26:24
80,prince rupert,54.3161,-130.3201,11.83,99,0,3.09,CA,2024-09-15 04:22:35
81,sitka,57.0531,-135.33,12.94,76,20,2.57,US,2024-09-15 04:26:26
82,constantia,44.1833,28.65,13.38,57,59,6.28,RO,2024-09-15 04:24:05
83,promyshlennaya,54.9159,85.6385,8.22,68,63,4.73,RU,2024-09-15 04:26:28
84,vangaindrano,-23.35,47.6,20.29,87,96,3.31,MG,2024-09-15 04:26:29
85,geraldton,-28.7667,114.6,26.23,21,0,9.77,AU,2024-09-15 04:26:30
86,natal,-5.795,-35.2094,22.12,88,20,3.09,BR,2024-09-15 04:26:31
87,ishigaki,24.3448,124.1572,32.07,70,75,3.09,JP,2024-09-15 04:26:33
88,mermoz boabab,14.7065,-17.4758,27.13,81,95,2.46,SN,2024-09-15 04:26:34
89,san pedro pochutla,15.7333,-96.4667,25.95,87,100,1.58,MX,2024-09-15 04:26:35
90,odienne,9.51,-7.5692,21.38,98,94,0.45,CI,2024-09-15 04:26:36
91,margate,51.3813,1.3862,9.27,88,6,4.19,GB,2024-09-15 04:26:37
92,dryden,49.7833,-92.7503,20.16,83,20,3.6,CA,2024-09-15 04:26:38
93,kailua-kona,19.6406,-155.9956,24.99,96,48,0.45,US,2024-09-15 04:26:39
94,atafu village,-8.5421,-172.5159,28.55,75,67,5.91,TK,2024-09-15 04:26:40
95,wau,7.7029,27.9953,21.14,93,55,1.78,SS,2024-09-15 04:26:41
96,anadyr,64.75,177.4833,8.28,81,100,4.92,RU,2024-09-15 04:26:42
97,bikenibeu village,1.3673,173.1241,30.98,66,20,3.6,KI,2024-09-15 04:26:43
98,badger,64.8,-147.5333,13.14,76,100,2.06,US,2024-09-15 04:26:46
99,whitehorse,60.7161,-135.0538,10.43,59,75,4.63,CA,2024-09-15 04:26:47
100,baise city,23.8997,106.6133,31.3,99,62,0.76,CN,2024-09-15 04:26:48
101,xilin hot,43.9667,116.0333,19.15,30,1,5.61,CN,2024-09-15 04:26:49
102,fisterra,42.9049,-9.2629,16.91,68,7,1.44,ES,2024-09-15 04:26:50
103,jamestown,42.097,-79.2353,18.8,93,0,1.54,US,2024-09-15 04:26:51
104,longyearbyen,78.2186,15.6401,6.91,81,75,6.17,SJ,2024-09-15 04:26:52
105,college,64.8569,-147.8028,13.03,74,75,2.06,US,2024-09-15 04:26:53
106,thompson,55.7435,-97.8558,14.09,94,75,5.14,CA,2024-09-15 04:26:54
107,mili,6.0815,171.735,27.01,80,100,3.27,MH,2024-09-15 04:26:55
108,debre werk',10.6667,38.1667,12.2,82,99,1.07,ET,2024-09-15 04:26:57
109,tegal,-6.8694,109.1402,30.76,45,67,1.64,ID,2024-09-15 04:26:58
110,kodiak,57.79,-152.4072,13.73,94,100,1.54,US,2024-09-15 04:26:59
111,port lincoln,-34.7333,135.8667,12.76,51,1,7.65,AU,2024-09-15 04:27:00
112,kingston,17.997,-76.7936,29.53,79,20,1.54,JM,2024-09-15 04:27:01
113,petropavlovsk-kamchatsky,53.0452,158.6483,15.33,33,20,6.0,RU,2024-09-15 04:27:02
114,at taj,24.2049,23.2857,28.59,32,3,3.38,LY,2024-09-15 04:27:03
115,moroni,-11.7022,43.2551,24.79,75,1,1.44,KM,2024-09-15 04:27:04
116,nguigmi,14.2495,13.1092,29.14,62,95,4.02,NE,2024-09-15 04:27:05
117,fort st. john,56.2499,-120.8529,9.94,87,100,5.66,CA,2024-09-15 04:27:06
118,posse,-14.0931,-46.3694,21.26,45,2,3.33,BR,2024-09-15 04:27:07
119,wailua homesteads,22.0669,-159.378,26.44,73,0,6.69,US,2024-09-15 04:27:08
120,newman,37.3138,-121.0208,22.8,56,1,1.34,US,2024-09-15 04:23:31
121,east tamworth,-31.0894,150.9436,15.77,39,19,7.2,AU,2024-09-15 04:27:11
122,rabaul,-4.1967,152.1721,28.53,73,49,1.93,PG,2024-09-15 04:27:12
123,sao vicente,-23.9631,-46.3919,21.1,26,60,2.07,BR,2024-09-15 04:27:13
124,poso,-1.3959,120.7524,31.54,49,78,3.61,ID,2024-09-15 04:27:14
125,aasiaat,68.7098,-52.8699,-1.17,85,15,2.75,GL,2024-09-15 04:27:15
126,dolisie,-4.1997,12.6739,21.84,87,32,1.46,CG,2024-09-15 04:27:16
127,horta,38.5333,-28.6333,19.45,86,10,2.24,PT,2024-09-15 04:27:17
128,nahiyat ash shinafiyah,31.5874,44.6602,29.52,27,0,4.07,IQ,2024-09-15 04:27:18
129,antalaha,-14.9003,50.2788,21.81,89,96,5.54,MG,2024-09-15 04:27:19
130,kapa'a,22.0752,-159.319,27.18,70,0,6.69,US,2024-09-15 04:27:20
131,isafjordur,66.0755,-23.124,2.83,78,93,5.26,IS,2024-09-15 04:27:22
132,avarua,-21.2078,-159.775,24.03,73,75,3.6,CK,2024-09-15 04:27:23
133,mitu,1.1983,-70.1733,23.89,73,0,0.52,CO,2024-09-15 04:27:24
134,dondo,-19.6094,34.7431,20.73,83,2,2.44,MZ,2024-09-15 04:27:25
135,olonkinbyen,70.9221,-8.7187,1.32,72,100,8.0,SJ,2024-09-15 04:27:26
136,gorazde,43.6669,18.9764,9.69,90,100,1.42,BA,2024-09-15 04:27:27
137,namibe,-15.1961,12.1522,17.78,87,15,2.5,AO,2024-09-15 04:27:28
138,yurga,55.7231,84.8861,7.02,70,7,5.02,RU,2024-09-15 04:27:30
139,winkler,49.1817,-97.941,20.1,88,100,0.51,CA,2024-09-15 04:27:31
140,tweed heads,-28.1817,153.547,22.02,64,24,9.26,AU,2024-09-15 04:27:32
141,kerikeri,-35.2268,173.9474,17.17,60,1,4.02,NZ,2024-09-15 04:27:33
142,puerto baquerizo moreno,-0.9,-89.6,21.14,88,74,4.52,EC,2024-09-15 04:27:34
143,marshall,34.3834,-86.3333,23.33,80,100,4.63,US,2024-09-15 04:27:35
144,ust'-ilimsk,58.0006,102.6619,3.34,95,97,4.9,RU,2024-09-15 04:27:36
145,pizarro,4.9533,-77.366,25.87,89,62,1.24,CO,2024-09-15 04:27:37
146,vila franca do campo,37.7167,-25.4333,20.23,87,4,1.65,PT,2024-09-15 04:27:38
147,vallenar,-28.5708,-70.7581,14.16,64,0,0.94,CL,2024-09-15 04:27:39
148,acarau,-2.8856,-40.12,24.75,84,14,7.16,BR,2024-09-15 04:23:35
149,arawa,-6.2132,155.5367,29.45,72,90,2.43,PG,2024-09-15 04:27:41
150,una,20.8167,71.0333,28.14,67,71,3.8,IN,2024-09-15 04:27:43
151,hermosillo,29.0667,-110.9667,31.95,72,0,4.63,MX,2024-09-15 04:27:44
152,the pas,53.8251,-101.2541,14.01,77,20,3.09,CA,2024-09-15 04:27:45
153,shalqar,47.8333,59.6,18.61,47,5,6.94,KZ,2024-09-15 04:27:46
154,zhob,31.3411,69.4481,24.62,44,0,2.44,PK,2024-09-15 04:27:47
155,sidney,-33.8679,151.2073,17.28,50,40,15.95,AU,2024-09-15 04:27:00
156,lihue,21.9789,-159.3672,26.77,71,0,6.69,US,2024-09-15 04:27:49
157,merizo village,13.2658,144.6691,29.31,89,100,3.53,GU,2024-09-15 04:27:50
158,bardai,11.65,7.2333,21.79,82,54,2.89,NG,2024-09-15 04:27:51
159,isla mujeres,21.2311,-86.731,28.03,82,31,3.57,MX,2024-09-15 04:27:52
160,arno,60.1167,18.6333,10.02,78,1,4.07,SE,2024-09-15 04:27:53
161,glace bay,46.1969,-59.957,14.25,79,75,7.72,CA,2024-09-15 04:27:55
162,port-vila,-17.7338,168.3219,23.78,100,100,4.63,VU,2024-09-15 04:27:56
163,port blair,11.6667,92.75,31.02,74,40,4.12,IN,2024-09-15 04:27:57
164,vila do maio,15.1333,-23.2167,26.39,68,88,3.61,CV,2024-09-15 04:27:58
165,eirunepe,-6.6603,-69.8736,29.18,34,39,1.1,BR,2024-09-15 04:27:59
166,rouissat,31.9243,5.3502,25.04,57,40,5.66,DZ,2024-09-15 04:28:00
167,hede,33.7681,120.2517,25.4,88,100,6.35,CN,2024-09-15 04:28:01
168,utrik,11.2278,169.8474,28.46,80,100,8.13,MH,2024-09-15 04:28:02
169,udachny,66.4167,112.4,2.32,73,89,7.26,RU,2024-09-15 04:28:03
170,pandan,14.0453,124.1694,29.42,75,98,6.61,PH,2024-09-15 04:28:04
171,east ballina,-28.8667,153.5833,18.29,69,27,8.63,AU,2024-09-15 04:28:05
172,san jose de jachal,-30.2406,-68.7469,13.82,38,0,1.3,AR,2024-09-15 04:28:07
173,mejit,10.2753,170.8646,28.08,82,100,7.74,MH,2024-09-15 04:28:08
174,knyaze-volkonskoye,48.4642,135.4567,19.19,49,56,5.32,RU,2024-09-15 04:28:09
175,sinabang,2.4803,96.3801,30.02,63,54,0.78,ID,2024-09-15 04:28:10
176,cascais,38.6979,-9.4215,21.98,61,72,0.45,PT,2024-09-15 04:28:11
177,port mathurin,-19.6833,63.4167,20.64,62,83,11.29,MU,2024-09-15 04:28:12
178,dudinka,69.4058,86.1778,4.36,57,77,3.88,RU,2024-09-15 04:28:13
179,tinajo,29.0788,-13.7081,20.49,78,20,4.63,ES,2024-09-15 04:28:14
180,sartana,47.1744,37.6927,18.71,43,0,9.05,UA,2024-09-15 04:28:15
181,griffith,41.5284,-87.4237,23.92,63,0,3.6,US,2024-09-15 04:28:16
182,san juan colorado,16.4586,-97.9536,23.47,95,100,0.54,MX,2024-09-15 04:28:17
183,chaozhou,23.6651,116.6379,29.92,57,63,1.4,CN,2024-09-15 04:28:20
184,nar'yan-mar,67.6713,53.087,17.09,75,91,4.19,RU,2024-09-15 04:28:21
185,san isidro de curuguaty,-24.5167,-55.7,18.37,77,100,0.92,PY,2024-09-15 04:28:22
186,mabaruma,8.2,-59.7833,24.22,95,51,0.41,GY,2024-09-15 04:28:23
187,flying fish cove,-10.4217,105.6791,26.82,83,75,5.66,CX,2024-09-15 04:28:25
188,balakhta,55.38,91.6,5.44,75,100,3.38,RU,2024-09-15 04:28:26
189,gevgelija,41.1392,22.5025,14.46,54,2,1.75,MK,2024-09-15 04:28:27
190,bandipura,34.4167,74.65,22.28,43,2,2.51,IN,2024-09-15 04:28:29
191,uturoa,-16.7333,-151.4333,26.64,76,0,3.65,PF,2024-09-15 04:28:30
192,bilibino,68.0546,166.4372,7.17,73,100,0.14,RU,2024-09-15 04:28:31
193,ulladulla,-35.35,150.4667,14.03,49,24,10.62,AU,2024-09-15 04:28:32
194,taroa,8.7058,171.2275,28.14,78,98,5.9,MH,2024-09-15 04:28:33
195,whitecourt,54.1502,-115.6855,10.58,81,75,1.03,CA,2024-09-15 04:28:34
196,san fernando,15.0286,120.6898,30.85,71,100,3.03,PH,2024-09-15 04:28:35
197,muisne,0.6,-80.0333,24.11,83,94,3.42,EC,2024-09-15 04:28:36
198,ghadamis,30.1337,9.5007,28.16,46,49,2.25,LY,2024-09-15 04:28:37
199,halstead,51.328,0.1327,10.1,84,35,1.93,GB,2024-09-15 04:28:38
200,tabou,4.423,-7.3528,23.7,84,100,4.6,CI,2024-09-15 04:28:40
201,damavand,35.7178,52.065,15.03,62,52,0.8,IR,2024-09-15 04:28:41
202,polavaram,17.2467,81.6439,29.12,66,100,5.04,IN,2024-09-15 04:28:42
203,la passe,45.5549,-0.8967,9.49,70,21,4.67,FR,2024-09-15 04:28:43
204,balabac,7.9868,117.0645,29.22,71,99,7.68,PH,2024-09-15 04:28:44
205,shubarshi,48.5872,57.1869,18.12,47,4,5.76,KZ,2024-09-15 04:28:45
206,saint-felix-de-valois,46.1668,-73.4324,15.58,92,7,1.27,CA,2024-09-15 04:28:46
207,el calafate,-50.3408,-72.2768,2.68,83,17,4.57,AR,2024-09-15 04:28:47
208,emerald,-23.5333,148.1667,27.41,28,0,4.46,AU,2024-09-15 04:28:48
209,bangassou,4.7413,22.8184,20.12,99,100,0.67,CF,2024-09-15 04:28:49
210,ierapetra,35.01,25.7353,23.41,55,58,0.45,GR,2024-09-15 04:28:50
211,talnakh,69.4865,88.3972,4.25,60,92,1.58,RU,2024-09-15 04:28:52
212,nova vicosa,-17.8919,-39.3719,22.09,84,0,3.19,BR,2024-09-15 04:28:53
213,tsiombe,-25.3,45.4833,22.64,64,0,2.97,MG,2024-09-15 04:28:54
214,barbezieux-saint-hilaire,45.4726,-0.1522,8.49,78,29,3.44,FR,2024-09-15 04:28:55
215,zhangye,38.9342,100.4517,19.92,48,70,6.02,CN,2024-09-15 04:28:56
216,mecca,21.4267,39.8261,28.75,79,61,2.26,SA,2024-09-15 04:28:57
217,erdenet,49.0333,104.0833,12.58,36,82,9.44,MN,2024-09-15 04:28:58
218,nagqu,31.5,92.0,12.75,49,13,3.29,CN,2024-09-15 04:29:00
219,bismarck,46.8083,-100.7837,18.78,85,100,2.57,US,2024-09-15 04:29:02
220,kristiansund,63.1115,7.732,13.96,62,100,4.63,NO,2024-09-15 04:29:03
221,franklin,39.9667,-83.0166,23.18,60,0,4.12,US,2024-09-15 04:29:04
222,rongelap,11.1635,166.8941,28.66,81,18,7.51,MH,2024-09-15 04:29:05
223,fonte boa,-2.4959,-66.2662,26.56,65,32,1.14,BR,2024-09-15 04:29:06
224,madurantakam,12.5167,79.9,33.52,42,54,6.87,IN,2024-09-15 04:29:07
225,invercargill,-46.4,168.35,6.12,95,100,4.02,NZ,2024-09-15 04:29:08
226,fale old settlement,-9.3852,-171.2468,28.45,76,100,6.31,TK,2024-09-15 04:29:09
227,ulsteinvik,62.3432,5.8487,16.5,70,90,4.86,NO,2024-09-15 04:29:10
228,estevan,49.1334,-102.9842,15.11,67,20,1.64,CA,2024-09-15 04:29:11
229,pallipattu,13.3386,79.4449,31.08,49,100,7.2,IN,2024-09-15 04:29:12
230,navasota,30.388,-96.0877,27.32,80,100,2.99,US,2024-09-15 04:29:13
231,maymana,35.9214,64.7836,21.3,21,35,1.2,AF,2024-09-15 04:29:15
232,khargone,21.8167,75.6,26.02,76,60,2.82,IN,2024-09-15 04:29:16
233,aitape,-3.1374,142.3475,30.49,61,74,1.9,PG,2024-09-15 04:29:17
234,butzow,53.85,11.9833,12.83,89,2,3.38,DE,2024-09-15 04:29:18
235,saint paul,44.9444,-93.0933,23.18,86,100,2.57,US,2024-09-15 04:29:19
236,san patricio,28.017,-97.5169,27.97,79,93,4.7,US,2024-09-15 04:29:20
237,sparti,37.0733,22.4297,18.3,80,7,1.94,GR,2024-09-15 04:29:21
238,hakui,36.8833,136.7833,31.29,80,100,4.49,JP,2024-09-15 04:29:22
239,hafar al-batin,28.4328,45.9708,27.32,18,0,2.57,SA,2024-09-15 04:29:23
240,bayganin,48.6947,55.8742,18.49,45,24,5.47,KZ,2024-09-15 04:29:24
241,pudozh,61.8099,36.5345,13.04,79,88,1.98,RU,2024-09-15 04:29:25
242,norrtalje,59.758,18.705,9.45,88,0,2.55,SE,2024-09-15 04:29:26
243,warwick,41.7001,-71.4162,17.94,89,20,2.06,US,2024-09-15 04:29:28
244,egilsstadir,65.2653,-14.3948,3.95,93,100,6.17,IS,2024-09-15 04:29:29
245,katsuura,35.1333,140.3,28.74,78,46,8.15,JP,2024-09-15 04:29:30
246,chernyshevskiy,63.0128,112.4714,3.05,62,86,4.86,RU,2024-09-15 04:29:31
247,claremont,34.0967,-117.7198,18.86,82,0,5.14,US,2024-09-15 04:29:32
248,aleksandrovsk-sakhalinskiy,50.8975,142.1561,14.78,61,4,2.75,RU,2024-09-15 04:29:33
249,saint-philippe,-21.3585,55.7679,19.08,73,55,6.31,RE,2024-09-15 04:29:34
250,st. john's,47.5649,-52.7093,11.1,81,100,7.2,CA,2024-09-15 04:25:20
251,qaqortoq,60.7167,-46.0333,4.29,93,100,2.36,GL,2024-09-15 04:29:36
252,severo-yeniseyskiy,60.3725,93.0408,0.64,77,100,4.83,RU,2024-09-15 04:29:37
253,urumqi,43.801,87.6005,14.53,59,0,1.0,CN,2024-09-15 04:29:38
254,calasparra,38.23,-1.6999,16.64,73,0,0.39,ES,2024-09-15 04:29:39
255,mossel bay,-34.1831,22.146,11.96,88,2,3.09,ZA,2024-09-15 04:29:41
256,yemetsk,63.4721,41.7941,12.94,76,90,2.12,RU,2024-09-15 04:29:42
257,naze,28.3667,129.4833,27.51,87,100,6.21,JP,2024-09-15 04:29:43
258,port shepstone,-30.7414,30.455,17.77,89,99,3.11,ZA,2024-09-15 04:29:44
259,keflavik,64.0049,-22.5624,5.24,81,20,6.17,IS,2024-09-15 04:29:45
260,kibaya,-5.3,36.5667,12.41,93,8,1.01,TZ,2024-09-15 04:29:46
261,coquimbo,-29.9533,-71.3436,10.85,92,0,2.06,CL,2024-09-15 04:29:47
262,chui,-33.6971,-53.4616,7.4,85,0,2.21,UY,2024-09-15 04:29:48
263,port saint john's,-31.6229,29.5448,17.98,84,94,5.45,ZA,2024-09-15 04:29:49
264,dampit,-8.2116,112.7493,30.52,32,100,4.2,ID,2024-09-15 04:29:50
265,laguna,38.421,-121.4238,22.1,56,0,4.12,US,2024-09-15 04:29:52
266,ola,59.5833,151.2833,8.37,75,96,1.85,RU,2024-09-15 04:29:53
267,humberto de campos,-2.5983,-43.4611,24.7,81,1,3.05,BR,2024-09-15 04:29:54
268,belyy yar,53.6039,91.3903,6.94,87,75,3.0,RU,2024-09-15 04:29:55
269,mega,4.05,38.3,13.43,80,10,6.36,ET,2024-09-15 04:29:56
270,new norfolk,-42.7826,147.0587,11.62,57,86,4.34,AU,2024-09-15 04:29:57
271,kirensk,57.7853,108.1119,13.66,52,100,2.69,RU,2024-09-15 04:29:58
272,san antonio de pale,-1.4014,5.6325,23.97,85,100,5.25,GQ,2024-09-15 04:29:59
273,pacific grove,36.6177,-121.9166,14.09,93,100,2.24,US,2024-09-15 04:30:03
274,nuuk,64.1835,-51.7216,3.34,100,100,4.12,GL,2024-09-15 04:30:04
275,tralee,52.2704,-9.7026,13.73,99,100,1.59,IE,2024-09-15 04:30:05
276,lloydminster,53.2835,-110.0016,14.12,72,40,2.06,CA,2024-09-15 04:30:06
277,myaydo,19.3667,95.2167,29.71,76,84,3.4,MM,2024-09-15 04:30:07
278,dunedin,-45.8742,170.5036,7.11,97,100,2.07,NZ,2024-09-15 04:30:08
279,urangan,-25.3,152.9,22.23,53,1,5.09,AU,2024-09-15 04:30:09
280,alice springs,-23.7,133.8833,24.75,20,1,7.2,AU,2024-09-15 04:30:10
281,sena madureira,-9.0656,-68.6569,27.33,39,61,0.43,BR,2024-09-15 04:30:11
282,santa elena de uairen,4.6167,-61.1333,19.48,87,56,0.37,VE,2024-09-15 04:30:12
283,chonchi,-42.6128,-73.8092,5.07,96,86,1.37,CL,2024-09-15 04:30:13
284,huazhou,21.6333,110.5833,31.29,66,99,1.09,CN,2024-09-15 04:30:15
285,mlimba,-8.8,35.8167,23.89,59,29,2.52,TZ,2024-09-15 04:30:16
286,hilo,19.7297,-155.09,25.85,80,0,2.06,US,2024-09-15 04:30:18
287,vilyuchinsk,52.9306,158.4028,16.15,52,74,5.16,RU,2024-09-15 04:30:19
288,mount gambier,-37.8333,140.7667,11.95,53,6,4.4,AU,2024-09-15 04:30:10
289,hinton,53.4001,-117.5857,9.23,94,92,1.77,CA,2024-09-15 04:30:21
290,hamilton,39.1834,-84.5333,24.12,63,0,3.09,US,2024-09-15 04:29:05
291,concepcion del uruguay,-32.4825,-58.2372,8.32,73,0,0.45,AR,2024-09-15 04:30:23
292,souillac,-20.5167,57.5167,20.21,73,40,5.14,MU,2024-09-15 04:30:25
293,scarborough,54.2797,-0.4044,13.21,81,66,1.79,GB,2024-09-15 04:30:26
294,siasi,5.5462,120.8145,27.86,80,91,8.88,PH,2024-09-15 04:30:27
295,i-n-salah,27.1935,2.4607,31.9,15,0,2.98,DZ,2024-09-15 04:30:28
296,rawson,-43.3002,-65.1023,11.16,30,0,4.63,AR,2024-09-15 04:30:29
297,fortuna foothills,32.6578,-114.4119,31.23,49,0,3.09,US,2024-09-15 04:30:30
298,lompoc,34.6391,-120.4579,14.94,89,100,2.06,US,2024-09-15 04:30:02
299,goderich,43.7501,-81.7165,19.18,77,2,3.6,CA,2024-09-15 04:30:32
300,boca do acre,-8.7522,-67.3978,25.88,32,11,0.27,BR,2024-09-15 04:30:33
301,manokwari,-0.8667,134.0833,29.17,66,21,2.3,ID,2024-09-15 04:30:34
302,maamba,-17.3667,27.15,23.03,31,0,1.91,ZM,2024-09-15 04:30:35
303,sovetskaya gavan',48.9723,140.2878,17.51,47,86,3.19,RU,2024-09-15 04:30:36
304,bodo,67.28,14.405,9.87,69,0,7.72,NO,2024-09-15 04:30:38
305,pirenopolis,-15.8525,-48.9592,24.11,33,97,2.35,BR,2024-09-15 04:30:39
306,woolgoolga,-30.1106,153.2007,16.93,56,76,11.63,AU,2024-09-15 04:30:40
307,stansted mountfitchet,51.9,0.2,9.21,92,61,2.06,GB,2024-09-15 04:30:41
308,murzuq,25.9155,13.9184,28.33,49,85,3.31,LY,2024-09-15 04:30:15
309,san fernando de apure,7.8878,-67.4724,24.97,88,3,0.68,VE,2024-09-15 04:30:43
310,sarikei,2.1167,111.5167,32.86,44,95,2.32,MY,2024-09-15 04:30:44
311,khash,28.2211,61.2158,27.02,24,3,1.81,IR,2024-09-15 04:30:45
312,campbell river,50.0163,-125.2446,12.21,94,75,1.03,CA,2024-09-15 04:30:43
313,buala,-8.145,159.5921,28.43,74,62,1.1,SB,2024-09-15 04:30:47
314,porto velho,-8.7619,-63.9039,28.03,69,47,0.51,BR,2024-09-15 04:30:49
315,kota belud,6.351,116.4305,31.06,59,70,6.32,MY,2024-09-15 04:30:50
316,mahibadhoo,3.7833,72.9667,28.85,73,19,3.48,MV,2024-09-15 04:30:51
317,alofi,-19.0595,-169.9187,25.94,78,40,3.6,NU,2024-09-15 04:30:52
318,hasaki,35.7333,140.8333,28.21,77,29,10.7,JP,2024-09-15 04:30:53
319,madalena,41.2162,-8.3345,16.92,64,8,1.9,PT,2024-09-15 04:30:54
320,apolinario saravia,-24.4328,-63.9954,14.56,50,21,1.96,AR,2024-09-15 04:30:55
321,laascaanood,8.4774,47.3597,24.66,49,49,14.09,SO,2024-09-15 04:30:56
322,valparaiso,-33.0393,-71.6273,7.8,93,0,0.0,CL,2024-09-15 04:30:57
323,loukhi,66.0764,33.0381,12.5,93,100,1.12,RU,2024-09-15 04:30:58
324,batouri,4.4333,14.3667,20.2,99,100,1.4,CM,2024-09-15 04:30:59
325,malyye derbety,47.9547,44.6808,21.4,39,0,6.37,RU,2024-09-15 04:31:01
326,aykhal,66.0,111.5,0.39,92,100,7.89,RU,2024-09-15 04:31:02
327,kiunga,-6.1219,141.2906,28.05,78,92,1.05,PG,2024-09-15 04:31:03
328,klaksvik,62.2266,-6.589,9.55,91,92,17.75,FO,2024-09-15 04:31:04
329,thivai,38.325,23.3189,16.14,63,0,1.87,GR,2024-09-15 04:31:05
330,yoloten,37.2989,62.3597,25.13,15,12,1.97,TM,2024-09-15 04:31:06
331,tadine,-21.55,167.8833,22.4,70,8,6.56,NC,2024-09-15 04:31:08
332,san pedro,14.35,121.0167,30.57,85,75,4.63,PH,2024-09-15 04:31:09
333,morondava,-20.2833,44.2833,25.79,77,58,1.17,MG,2024-09-15 04:31:10
334,haiku-pauwela,20.9219,-156.3051,25.67,74,40,9.26,US,2024-09-15 04:31:12
335,corner brook,48.9667,-57.9484,7.26,95,19,1.7,CA,2024-09-15 04:31:13
336,kamloops,50.6665,-120.3192,15.55,59,75,2.57,CA,2024-09-15 04:27:03
337,amga,60.8953,131.9608,8.54,42,16,2.5,RU,2024-09-15 04:31:15
338,loreto,22.2667,-101.9667,17.55,87,100,6.95,MX,2024-09-15 04:31:16
339,suzun,53.7841,82.3116,12.24,65,100,3.72,RU,2024-09-15 04:31:17
340,pacasmayo,-7.4006,-79.5714,15.61,93,12,3.9,PE,2024-09-15 04:31:18
341,remire-montjoly,4.9167,-52.2667,25.02,94,0,0.51,GF,2024-09-15 04:31:19
342,muroto-misakicho,33.2833,134.15,28.04,86,100,5.87,JP,2024-09-15 04:31:20
343,farsan,32.2569,50.561,15.02,28,0,1.5,IR,2024-09-15 04:31:21
344,okha,53.5739,142.9478,11.86,60,4,6.54,RU,2024-09-15 04:31:22
345,reconquista,-29.15,-59.65,11.59,78,68,3.27,AR,2024-09-15 04:31:24
346,falenki,58.3613,51.5946,17.9,76,21,2.25,RU,2024-09-15 04:31:25
347,obihiro,42.9172,143.2044,20.67,74,99,5.83,JP,2024-09-15 04:31:26
348,silsbee,30.3491,-94.178,27.23,88,98,1.77,US,2024-09-15 04:31:27
349,shibirghan,36.6676,65.7529,25.71,15,11,1.33,AF,2024-09-15 04:31:28
350,pangody,65.85,74.4859,6.74,46,18,1.22,RU,2024-09-15 04:31:29
351,pujili,-0.95,-78.6833,8.6,94,56,4.06,EC,2024-09-15 04:31:30
352,amparafaravola,-17.5833,48.2167,18.33,61,10,4.76,MG,2024-09-15 04:31:31
353,smithers,54.7804,-127.1743,9.18,81,40,1.54,CA,2024-09-15 04:31:32
354,mzimba,-11.9,33.6,21.14,38,8,5.1,MW,2024-09-15 04:31:33
355,jianshui,23.6363,102.8264,26.82,67,31,1.35,CN,2024-09-15 04:31:34
356,ashkasham,36.6833,71.5333,11.62,41,80,1.24,AF,2024-09-15 04:31:36
357,wanganui,-39.9333,175.05,12.28,76,18,2.44,NZ,2024-09-15 04:31:37
358,chibougamau,49.9168,-74.3659,13.79,94,0,1.03,CA,2024-09-15 04:31:38
359,kavieng,-2.5744,150.7967,28.55,72,88,1.48,PG,2024-09-15 04:31:39
360,hami,42.8,93.45,22.74,26,9,1.52,CN,2024-09-15 04:31:40
361,marka,1.7159,44.7717,26.14,69,22,7.29,SO,2024-09-15 04:31:41
362,kenai,60.5544,-151.2583,9.05,100,100,2.57,US,2024-09-15 04:31:42
363,rosarito,32.3333,-117.0333,18.51,81,0,1.0,MX,2024-09-15 04:31:43
364,aragarcas,-15.8975,-52.2508,23.75,32,20,0.52,BR,2024-09-15 04:31:44
365,subaykhan,34.8544,40.6083,26.48,49,9,7.09,SY,2024-09-15 04:31:45
366,mutuali,-14.8706,37.0044,24.23,49,5,1.12,MZ,2024-09-15 04:31:46
367,ardestan,33.3761,52.3694,23.31,34,29,2.92,IR,2024-09-15 04:31:48
368,vavatenina,-17.4667,49.2,19.52,86,100,1.51,MG,2024-09-15 04:31:49
369,noumea,-22.2763,166.4572,21.06,70,67,4.8,NC,2024-09-15 04:31:50
370,balqash,46.8481,74.995,15.33,44,0,8.0,KZ,2024-09-15 04:31:51
371,jiangzi,28.95,89.6333,12.43,32,35,1.35,CN,2024-09-15 04:31:52
372,guangyuan,32.442,105.823,28.76,72,60,2.48,CN,2024-09-15 04:31:53
373,tamanrasset,22.785,5.5228,21.95,60,20,1.03,DZ,2024-09-15 04:31:54
374,mananjary,-21.2167,48.3333,21.9,76,62,3.26,MG,2024-09-15 04:31:55
375,puerto maldonado,-12.6,-69.1833,28.51,43,72,1.33,PE,2024-09-15 04:31:56
376,bundaberg north,-24.8551,152.3425,24.03,41,0,4.16,AU,2024-09-15 04:31:57
377,san jose del guaviare,2.5729,-72.6459,24.64,81,28,0.72,CO,2024-09-15 04:32:00
378,frontino,6.7801,-76.1288,19.64,99,100,0.71,CO,2024-09-15 04:32:01
379,narrabri,-30.3167,149.7833,18.07,43,6,1.79,AU,2024-09-15 04:32:02
380,hanceville,34.0607,-86.7675,21.95,95,78,4.86,US,2024-09-15 04:32:03
381,al kharijah,25.4514,30.5464,26.42,47,0,4.15,EG,2024-09-15 04:32:04
382,happy valley-goose bay,53.3168,-60.3315,6.17,81,20,4.12,CA,2024-09-15 04:32:05
383,makubetsu,45.3714,141.8211,18.84,63,20,4.63,JP,2024-09-15 04:32:06
384,tyukhtet,56.5389,89.3011,5.47,59,51,4.1,RU,2024-09-15 04:32:07
385,tsengel,49.4783,100.8894,5.22,83,34,10.75,MN,2024-09-15 04:32:08
386,basco,20.4487,121.9702,28.92,75,100,3.61,PH,2024-09-15 04:32:09
387,shingu,33.7333,135.9833,27.91,86,100,2.72,JP,2024-09-15 04:32:10
388,orerokpe,5.6351,5.8896,23.45,96,99,1.18,NG,2024-09-15 04:32:12
389,queenstown,-31.8976,26.8753,13.76,70,19,1.29,ZA,2024-09-15 04:32:13
390,dongning,44.0622,131.1207,19.4,44,0,1.11,CN,2024-09-15 04:32:14
391,karabash,55.4808,60.2157,13.87,81,0,1.34,RU,2024-09-15 04:32:15
392,eregli,37.5133,34.0467,23.98,32,44,0.26,TR,2024-09-15 04:32:16
393,sarangani,5.4033,125.4636,28.69,72,90,8.66,PH,2024-09-15 04:32:18
394,el granada,37.5027,-122.4694,15.79,87,100,2.06,US,2024-09-15 04:32:19
395,hithadhoo,-0.6,73.0833,28.63,74,13,3.77,MV,2024-09-15 04:32:20
396,kirakira,-10.4544,161.9205,28.04,79,29,2.78,SB,2024-09-15 04:32:22
397,wuhai,39.6647,106.8122,13.46,91,100,2.13,CN,2024-09-15 04:32:23
398,weno,7.4515,151.8468,24.97,94,100,2.06,FM,2024-09-15 04:32:24
399,bayanaul,50.7889,75.6956,14.14,67,91,3.27,KZ,2024-09-15 04:32:25
400,villa gesell,-37.2639,-56.973,6.19,75,0,4.29,AR,2024-09-15 04:32:26
401,jayapura,-2.5333,140.7,32.66,79,96,1.62,ID,2024-09-15 04:32:27
402,dogubayazit,39.5469,44.0842,16.86,49,9,2.07,TR,2024-09-15 04:32:28
403,khanty-mansiysk,61.0042,69.0019,10.06,71,0,2.0,RU,2024-09-15 04:32:29
404,khorixas,-20.3667,14.9667,16.33,28,8,1.2,NA,2024-09-15 04:32:30
405,kingsville,27.5159,-97.8561,28.98,88,0,2.06,US,2024-09-15 04:32:31
406,china,25.7,-99.2333,28.73,72,99,8.54,MX,2024-09-15 04:32:32
407,constitucion,-35.3333,-72.4167,10.53,71,78,2.37,CL,2024-09-15 04:32:33
408,pangkalpinang,-2.1333,106.1333,33.41,45,72,3.81,ID,2024-09-15 04:32:35
409,jasdan,22.0333,71.2,27.93,60,8,5.75,IN,2024-09-15 04:32:37
410,gao,16.6362,1.637,28.2,61,81,2.22,ML,2024-09-15 04:32:38
411,hammerfest,70.6634,23.6821,7.25,100,55,1.54,NO,2024-09-15 04:32:39
412,chalonnes-sur-loire,47.3516,-0.7631,7.56,74,32,2.44,FR,2024-09-15 04:32:40
413,rio grande,-32.035,-52.0986,11.29,83,1,4.44,BR,2024-09-15 04:32:42
414,malango,-2.9627,119.9001,28.95,44,78,2.06,ID,2024-09-15 04:32:44
415,ranau,5.9538,116.6641,28.18,63,97,2.49,MY,2024-09-15 04:32:45
416,aleksandrovskoye,44.7142,43.0008,16.85,66,0,8.07,RU,2024-09-15 04:32:46
417,itaituba,-4.2761,-55.9836,29.21,43,74,0.9,BR,2024-09-15 04:32:47
418,yelizovo,53.1873,158.3805,16.08,33,20,6.0,RU,2024-09-15 04:32:48
419,tolanaro,-25.0319,46.9987,21.04,78,0,6.17,MG,2024-09-15 04:32:49
420,luderitz,-26.6481,15.1594,10.64,76,0,6.8,NA,2024-09-15 04:32:50
421,alamosa,37.4695,-105.87,11.99,47,0,0.0,US,2024-09-15 04:32:51
422,east london,-33.0153,27.9116,16.52,94,100,1.03,ZA,2024-09-15 04:32:52
423,sirte,31.2089,16.5887,24.84,66,85,5.01,LY,2024-09-15 04:32:53
424,saguenay,48.4168,-71.0657,11.16,91,0,1.54,CA,2024-09-15 04:32:54
425,iitti,60.8949,26.3387,15.17,99,94,2.21,FI,2024-09-15 04:32:56
426,usinsk,65.9939,57.5281,16.49,83,94,5.43,RU,2024-09-15 04:32:57
427,chernyshevsk,52.5243,117.0174,18.52,41,100,2.99,RU,2024-09-15 04:32:58
428,darnah,32.767,22.6367,24.65,64,26,8.24,LY,2024-09-15 04:32:59
429,mount pearl,47.5166,-52.7813,10.64,82,100,7.2,CA,2024-09-15 04:33:00
430,dubti,11.7361,41.0853,33.93,30,32,3.34,ET,2024-09-15 04:33:01
431,sao lourenco do oeste,-26.3592,-52.8511,12.65,86,80,2.71,BR,2024-09-15 04:33:02
432,sao joao da barra,-21.6403,-41.0511,22.14,88,4,7.5,BR,2024-09-15 04:33:03
433,sittwe,20.15,92.9,27.67,83,100,5.64,MM,2024-09-15 04:33:04
434,santo antonio do ica,-3.1022,-67.9397,24.95,68,92,1.13,BR,2024-09-15 04:33:05
435,isla vista,34.4133,-119.861,18.24,83,100,2.57,US,2024-09-15 04:30:12
436,susuman,62.7833,148.1667,4.48,74,100,6.43,RU,2024-09-15 04:33:08
437,tarrafal de sao nicolau,16.5667,-24.3667,25.31,73,99,3.77,CV,2024-09-15 04:33:09
438,vernon,50.2581,-119.2691,13.85,78,80,1.03,CA,2024-09-15 04:33:10
439,bayanhongor,46.7167,100.1167,8.15,23,14,8.96,MN,2024-09-15 04:33:11
440,caleta de carquin,-11.0925,-77.6267,16.35,87,49,3.83,PE,2024-09-15 04:33:14
441,yeppoon,-23.1333,150.7333,21.85,55,0,5.29,AU,2024-09-15 04:33:15
442,kataysk,56.289,62.5841,15.67,76,44,2.58,RU,2024-09-15 04:33:16
443,krasnokholm,51.5979,54.1567,18.69,62,100,3.26,RU,2024-09-15 04:33:17
444,bonthe,7.5264,-12.505,24.53,90,92,1.86,SL,2024-09-15 04:33:18
445,mount isa,-20.7333,139.5,30.87,23,2,5.66,AU,2024-09-15 04:33:20
446,dizangue,3.7667,9.9833,22.82,98,95,0.41,CM,2024-09-15 04:33:21
447,zahedan,29.4963,60.8629,21.95,20,0,2.06,IR,2024-09-15 04:33:22
448,zhosaly,45.4878,64.0781,20.81,32,62,10.1,KZ,2024-09-15 04:33:23
449,aral,40.5156,81.2636,27.27,18,93,3.85,CN,2024-09-15 04:33:24
450,piti village,13.4626,144.6933,30.03,83,100,3.6,GU,2024-09-15 04:33:25
451,eydhafushi,5.1033,73.0708,28.42,74,24,3.57,MV,2024-09-15 04:33:26
452,moapa valley,36.5805,-114.4703,28.97,27,0,2.3,US,2024-09-15 04:33:27
453,borba,-4.3878,-59.5939,27.23,49,64,1.09,BR,2024-09-15 04:33:28
454,le port,-20.9373,55.2919,22.16,62,53,2.06,RE,2024-09-15 04:33:29
455,petawawa,45.9001,-77.3328,15.99,93,1,1.12,CA,2024-09-15 04:33:30
456,bellaria-igea marina,44.1421,12.47,17.17,58,100,2.68,IT,2024-09-15 04:33:31
457,zhelezinka,53.54,75.3072,16.58,66,94,5.86,KZ,2024-09-15 04:33:33
458,tamiahua,21.2667,-97.45,27.03,89,31,2.2,MX,2024-09-15 04:33:34
459,praia,14.9215,-23.5087,26.3,78,40,3.6,CV,2024-09-15 04:33:35
460,el quebrachal,-25.2833,-64.0667,15.15,37,15,1.0,AR,2024-09-15 04:33:36
461,gokwe,-18.2048,28.9349,20.09,28,0,2.26,ZW,2024-09-15 04:33:37
462,paimpol,48.7784,-3.0438,8.65,63,0,1.6,FR,2024-09-15 04:33:38
463,kachug,53.9606,105.8817,11.39,66,100,5.79,RU,2024-09-15 04:33:39
464,saudarkrokur,65.7461,-19.6394,3.62,98,100,6.8,IS,2024-09-15 04:33:40
465,ponta delgada,37.7333,-25.6667,20.4,77,20,3.09,PT,2024-09-15 04:33:41
466,namtsy,62.7161,129.6658,8.89,40,6,3.08,RU,2024-09-15 04:33:42
467,nyurba,63.2842,118.3319,6.76,46,36,2.9,RU,2024-09-15 04:33:43
468,mar del plata,-38.0023,-57.5575,7.71,88,0,2.24,AR,2024-09-15 04:33:45
469,yung shue wan,22.2333,114.1167,33.12,62,43,1.58,HK,2024-09-15 04:33:46
470,zyryanskoye,56.8306,86.6258,6.45,58,9,4.68,RU,2024-09-15 04:33:47
471,cill airne,52.05,-9.5167,14.36,99,100,1.37,IE,2024-09-15 04:33:48
472,cabedelo,-6.9811,-34.8339,23.37,81,60,5.16,BR,2024-09-15 04:33:49
473,belle chasse,29.8549,-89.9906,26.67,80,75,0.0,US,2024-09-15 04:33:50
474,holualoa,19.6228,-155.9522,22.36,96,53,0.97,US,2024-09-15 04:33:52
475,castillos,-34.1667,-53.8333,5.54,85,0,1.29,UY,2024-09-15 04:33:53
476,formiga,-20.4644,-45.4264,18.14,42,12,1.24,BR,2024-09-15 04:33:54
477,ust'-kulom,61.6864,53.6902,18.65,74,95,1.13,RU,2024-09-15 04:33:55
478,cadale,2.7603,46.3222,25.89,72,20,9.18,SO,2024-09-15 04:33:57
479,jobabo,20.9692,-76.2994,25.01,88,81,0.4,CU,2024-09-15 04:33:58
480,mil'kovo,55.6078,37.7956,15.35,53,71,3.02,RU,2024-09-15 04:33:59
481,faranah,10.0404,-10.7434,21.48,99,100,2.96,GN,2024-09-15 04:34:00
482,bridgewater,44.3835,-64.5155,8.95,93,14,1.36,CA,2024-09-15 04:34:01
483,archangelos,36.2149,28.1149,24.62,64,67,4.78,GR,2024-09-15 04:34:02
484,pilona,43.35,-5.3667,11.77,73,9,1.99,ES,2024-09-15 04:34:03
485,gosaba,22.165,88.7998,25.95,87,100,9.57,IN,2024-09-15 04:34:04
486,al ghayzah,16.2079,52.176,27.22,79,50,2.1,YE,2024-09-15 04:34:05
487,nikolayevsk-on-amure,53.1406,140.73,16.35,48,32,3.5,RU,2024-09-15 04:34:06
488,colonia,50.9333,6.95,7.17,88,20,0.51,DE,2024-09-15 04:34:07
489,bubaque,11.2833,-15.8333,26.8,80,100,6.26,GW,2024-09-15 04:34:09
490,govindgarh,27.5,76.9833,31.63,51,1,3.17,IN,2024-09-15 04:34:10
491,casper,42.8666,-106.3131,14.36,31,27,1.34,US,2024-09-15 04:30:51
492,boulder,40.0833,-105.3505,17.18,38,0,2.24,US,2024-09-15 04:34:13
493,nchelenge,-9.3451,28.734,22.6,35,39,1.65,ZM,2024-09-15 04:34:14
494,tucurui,-3.7661,-49.6725,25.17,55,19,2.96,BR,2024-09-15 04:34:15
495,callao,-12.0667,-77.15,17.62,82,100,3.6,PE,2024-09-15 04:34:16
496,zouerate,22.7187,-12.4521,30.51,24,0,2.78,MR,2024-09-15 04:34:17
497,canyon lake,29.8752,-98.2625,28.73,69,100,0.89,US,2024-09-15 04:31:00
498,booneville,34.6582,-88.5667,20.79,98,100,3.88,US,2024-09-15 04:34:20
499,kalanaur,28.8333,76.4,31.36,52,7,5.5,IN,2024-09-15 04:34:21
500,la tuque,47.4334,-72.7824,13.14,94,15,0.0,CA,2024-09-15 04:34:22
501,sisimiut,66.9395,-53.6735,2.64,89,51,3.1,GL,2024-09-15 04:34:23
502,westport,41.1415,-73.3579,19.55,90,26,0.45,US,2024-09-15 04:30:06
503,joshimath,30.5667,79.5667,21.42,61,10,2.86,IN,2024-09-15 04:34:25
504,veinticinco de mayo,-35.4323,-60.1727,6.1,82,4,1.79,AR,2024-09-15 04:34:26
505,montepuez,-13.1256,38.9997,23.15,62,0,3.49,MZ,2024-09-15 04:34:27
506,itaberai,-16.0203,-49.8103,26.81,30,85,2.82,BR,2024-09-15 04:34:28
507,howard springs,-12.497,131.047,31.6,55,58,2.44,AU,2024-09-15 04:34:29
508,paradip garh,20.3167,86.6167,27.77,77,100,8.22,IN,2024-09-15 04:34:30
509,vimmerby,57.6659,15.8552,5.73,83,0,2.24,SE,2024-09-15 04:34:32
510,minas de marcona,-15.2119,-75.1103,9.2,91,71,6.42,PE,2024-09-15 04:34:33
511,skelleftea,64.7507,20.9528,5.2,100,56,2.57,SE,2024-09-15 04:34:34
512,pathein,16.7833,94.7333,30.98,67,97,5.19,MM,2024-09-15 04:34:35
513,freetown,8.484,-13.2299,24.47,91,100,2.04,SL,2024-09-15 04:34:36
514,korla,41.7597,86.1469,23.99,28,25,3.18,CN,2024-09-15 04:34:37
515,diapaga,12.0708,1.7889,23.15,95,96,2.34,BF,2024-09-15 04:34:38
516,ta`u,-14.2336,-169.5144,26.59,83,35,6.69,AS,2024-09-15 04:34:39
517,touros,-5.1989,-35.4608,21.78,88,1,4.96,BR,2024-09-15 04:34:40
518,burlington,39.8835,-74.6413,16.09,93,0,0.0,US,2024-09-15 04:34:41
519,mahdia,35.5047,11.0622,19.82,53,0,7.31,TN,2024-09-15 04:34:42
520,extrema,-22.8547,-46.3183,16.12,78,18,2.28,BR,2024-09-15 04:34:44
521,kalmunai,7.4167,81.8167,33.13,50,31,1.15,LK,2024-09-15 04:34:45
522,sorong,-0.8833,131.25,28.67,76,35,6.19,ID,2024-09-15 04:34:46
523,capitao poco,-1.7464,-47.0594,21.46,98,6,2.16,BR,2024-09-15 04:34:47
524,takanabe,32.1333,131.5,28.94,87,94,1.93,JP,2024-09-15 04:34:48
525,acapulco de juarez,16.8634,-99.8901,29.9,79,100,2.06,MX,2024-09-15 04:31:07
526,turpan,42.9333,89.1667,27.84,25,13,3.54,CN,2024-09-15 04:34:50
527,markovo,57.3206,107.0881,8.87,83,87,4.75,RU,2024-09-15 04:34:51
528,al burayqah,30.4062,19.5739,25.82,68,29,8.13,LY,2024-09-15 04:34:52
529,kolonia town,6.964,158.206,34.0,55,75,3.09,FM,2024-09-15 04:34:53
530,hobyo,5.3505,48.5268,26.35,71,37,10.55,SO,2024-09-15 04:34:54
531,crane,31.3974,-102.3501,26.38,47,84,4.03,US,2024-09-15 04:34:56
532,laojunmiao,39.8333,97.7333,15.95,55,49,3.66,CN,2024-09-15 04:34:57
533,kasane,-17.8167,25.15,20.05,32,0,1.03,BW,2024-09-15 04:34:58
534,gulf shores,30.246,-87.7008,26.67,83,100,1.54,US,2024-09-15 04:34:59
535,baukau,51.5526,7.2042,8.6,90,63,1.16,DE,2024-09-15 04:35:00
536,porto novo,6.4965,2.6036,24.9,95,100,1.8,BJ,2024-09-15 04:35:01
537,porteirinha,-15.7433,-43.0283,19.13,57,3,2.22,BR,2024-09-15 04:35:02
538,formosa do rio preto,-11.0483,-45.1931,20.92,36,25,1.89,BR,2024-09-15 04:35:03
539,kourou,5.1552,-52.6478,24.32,88,19,3.3,GF,2024-09-15 04:35:05
540,puerto penasco,31.3167,-113.5333,30.51,74,0,2.68,MX,2024-09-15 04:35:06
541,nizao,18.25,-70.2,26.63,88,22,1.51,DO,2024-09-15 04:35:07
542,waingapu,-9.6567,120.2641,30.69,47,49,7.81,ID,2024-09-15 04:35:08
543,primorsk,46.7348,36.3443,20.36,51,0,11.42,UA,2024-09-15 04:35:09
544,serdar,38.9764,56.2757,22.92,17,24,0.9,TM,2024-09-15 04:35:10
545,mafinga,-7.25,35.0667,21.73,42,1,2.01,TZ,2024-09-15 04:35:11
546,suva,-18.1416,178.4415,26.71,78,75,3.09,FJ,2024-09-15 04:35:12
547,alta,69.9689,23.2717,2.59,81,1,1.54,NO,2024-09-15 04:35:13
548,alto araguaia,-17.3147,-53.2153,23.04,36,23,3.34,BR,2024-09-15 04:35:14
549,tofol,5.3248,163.0078,28.14,69,100,1.34,FM,2024-09-15 04:35:16
550,mersa matruh,31.3525,27.2453,26.11,73,40,2.57,EG,2024-09-15 04:35:17
551,carbondale,37.7273,-89.2168,21.0,94,75,0.0,US,2024-09-15 04:35:18
552,urengoy,65.9667,78.3667,6.11,49,38,2.61,RU,2024-09-15 04:35:19
553,sur,22.5667,59.5289,33.27,42,0,2.84,OM,2024-09-15 04:35:20
554,karaton,-6.3424,106.1045,33.49,40,71,0.52,ID,2024-09-15 04:35:21
555,mahavelona,-17.6848,49.5087,22.34,67,98,3.9,MG,2024-09-15 04:35:22
556,zhalantun,48.0,122.7167,24.43,33,52,5.23,CN,2024-09-15 04:35:23
557,hoemul-li,41.4339,129.67,20.17,57,95,2.04,KP,2024-09-15 04:35:24
558,bethanie,-26.4833,17.15,7.71,52,1,1.23,NA,2024-09-15 04:35:25
559,kruisfontein,-34.0033,24.7314,12.41,93,2,3.03,ZA,2024-09-15 04:35:26
560,douz,33.4663,9.0203,21.3,49,0,6.78,TN,2024-09-15 04:35:28
561,labuan,5.2767,115.2417,31.2,74,20,2.24,MY,2024-09-15 04:35:29
562,sete,43.4018,3.6966,13.86,53,37,4.56,FR,2024-09-15 04:35:30
563,necochea,-38.5473,-58.7368,5.4,67,5,6.2,AR,2024-09-15 04:35:31
564,palmas,-10.2128,-48.3603,24.93,38,0,2.57,BR,2024-09-15 04:35:32
565,salinopolis,-0.6136,-47.3561,26.21,81,23,5.71,BR,2024-09-15 04:35:33
566,yazoo city,32.8551,-90.4056,19.54,90,88,2.04,US,2024-09-15 04:35:35
567,bulawayo,-20.15,28.5833,20.34,28,26,3.85,ZW,2024-09-15 04:35:39
568,zaozersk,69.4005,32.4476,9.27,81,100,0.86,RU,2024-09-15 04:35:40
569,sinop,41.7711,34.8709,22.04,53,92,2.67,TR,2024-09-15 04:35:41
570,richards bay,-28.783,32.0377,19.07,80,96,1.05,ZA,2024-09-15 04:35:42
571,bixby,35.942,-95.8833,24.75,75,1,1.34,US,2024-09-15 04:30:50
572,terenos,-20.4422,-54.8603,22.84,73,60,4.63,BR,2024-09-15 04:35:44
573,baley,51.6,116.6333,19.29,38,100,5.59,RU,2024-09-15 04:35:45
574,sai buri,6.7013,101.6168,31.84,57,100,5.87,TH,2024-09-15 04:35:48
575,lyakhavichy,53.0388,26.2656,16.74,57,96,5.24,BY,2024-09-15 04:35:49
576,lorengau,-2.0226,147.2712,28.36,78,49,3.07,PG,2024-09-15 04:35:50
577,gadzhiyevo,69.2551,33.3362,10.3,81,100,1.11,RU,2024-09-15 04:35:51
578,la mira,18.035,-102.3266,26.09,88,100,1.68,MX,2024-09-15 04:35:52
579,chake chake,-5.2459,39.7666,25.9,64,9,4.29,TZ,2024-09-15 04:35:53
580,zalegoshch',52.9008,36.8869,17.97,31,1,5.07,RU,2024-09-15 04:35:54
581,pingxiang,27.6167,113.85,29.42,77,63,3.21,CN,2024-09-15 04:35:55
582,pontes e lacerda,-15.2261,-59.3353,25.96,56,54,1.33,BR,2024-09-15 04:35:56
583,micheweni,-4.9667,39.8333,25.69,67,25,4.93,TZ,2024-09-15 04:35:57
584,crescent city,41.756,-124.2018,16.38,98,100,4.63,US,2024-09-15 04:35:58
585,lander,42.833,-108.7307,17.45,23,0,5.66,US,2024-09-15 04:32:48
586,ostersund,63.1792,14.6357,6.25,80,71,5.14,SE,2024-09-15 04:36:01
587,honiara,-9.4333,159.95,28.61,74,22,1.16,SB,2024-09-15 04:36:02
588,fort bragg,35.139,-79.006,23.23,84,100,5.66,US,2024-09-15 04:31:11
589,quang ngai,15.1167,108.8,34.79,48,97,2.76,VN,2024-09-15 04:36:04
590,corinto,37.9407,22.9573,19.94,57,0,3.62,GR,2024-09-15 04:36:05
591,tura,25.5198,90.2201,23.95,95,100,1.99,IN,2024-09-15 04:36:06
592,antofagasta,-23.65,-70.4,13.6,84,51,3.21,CL,2024-09-15 04:36:08
593,teknaf,20.8624,92.3058,27.63,84,100,5.86,BD,2024-09-15 04:36:10
594,magadan,59.5667,150.8,8.43,72,66,2.44,RU,2024-09-15 04:36:11
595,sept-iles,50.2001,-66.3821,6.29,100,20,2.57,CA,2024-09-15 04:36:12
596,lhasa,29.65,91.1,19.04,42,57,2.42,CN,2024-09-15 04:36:13
