City_ID,City,Lat,Lng,Max Temp,Humidity,Cloudiness,Wind Speed,Country,Date
0,labytnangi,66.6572,66.4183,57.58,84,9,6.4,RU,1726167439
1,afaahiti,-17.75,-149.2833,75.15,86,8,22.12,PF,1726167440
2,acarau,-2.8856,-40.12,82.08,63,8,22.59,BR,1726167442
3,tofol,5.3248,163.0078,84.0,72,77,6.51,FM,1726167443
4,baotou,40.6522,109.8222,69.78,75,100,8.21,CN,1726167444
5,ashburton,-37.8626,145.0794,52.39,84,73,1.01,AU,1726167445
6,holyhead,53.3062,-4.6321,51.8,66,20,11.5,GB,1726167446
7,stanley,54.868,-1.6985,46.53,78,20,3.44,GB,1726167447
8,bethel,41.3712,-73.414,80.38,59,0,4.61,US,1726167448
9,itororo,-15.1169,-40.0703,82.02,39,69,9.73,BR,1726167449
10,albany,42.6001,-73.9662,82.44,53,7,1.01,US,1726167450
11,bilibino,68.0546,166.4372,37.4,81,17,3.2,RU,1726167451
12,talnakh,69.4865,88.3972,45.45,95,100,10.25,RU,1726167454
13,boticas,41.6758,-7.716,58.24,81,3,5.32,PT,1726167455
14,carloforte,39.145,8.3058,67.77,73,100,22.73,IT,1726167456
15,iqaluit,63.7506,-68.5145,40.73,75,75,5.75,CA,1726167457
16,labytnangi,66.6572,66.4183,57.58,84,9,6.4,RU,1726167439
17,afaahiti,-17.75,-149.2833,75.15,86,8,22.12,PF,1726167440
18,acarau,-2.8856,-40.12,82.08,63,8,22.59,BR,1726167442
19,tofol,5.3248,163.0078,84.0,72,77,6.51,FM,1726167443
20,baotou,40.6522,109.8222,69.78,75,100,8.21,CN,1726167444
21,ashburton,-37.8626,145.0794,52.39,84,73,1.01,AU,1726167445
22,holyhead,53.3062,-4.6321,51.8,66,20,11.5,GB,1726167446
23,stanley,54.868,-1.6985,46.53,78,20,3.44,GB,1726167447
24,bethel,41.3712,-73.414,80.38,59,0,4.61,US,1726167448
25,itororo,-15.1169,-40.0703,82.02,39,69,9.73,BR,1726167449
26,albany,42.6001,-73.9662,82.44,53,7,1.01,US,1726167450
27,bilibino,68.0546,166.4372,37.4,81,17,3.2,RU,1726167451
28,talnakh,69.4865,88.3972,45.45,95,100,10.25,RU,1726167454
29,boticas,41.6758,-7.716,58.24,81,3,5.32,PT,1726167455
30,carloforte,39.145,8.3058,67.77,73,100,22.73,IT,1726167456
31,iqaluit,63.7506,-68.5145,40.73,75,75,5.75,CA,1726167457
32,port-aux-francais,-49.35,70.2167,30.7,82,83,20.69,TF,1726167490
33,taroa,8.7058,171.2275,82.24,77,95,1.7,MH,1726167491
34,wailua homesteads,22.0669,-159.378,81.39,77,20,9.22,US,1726167492
35,edinburgh of the seven seas,-37.0676,-12.3116,55.35,74,100,17.58,SH,1726167493
36,bonthe,7.5264,-12.505,78.04,85,98,5.99,SL,1726167494
37,darwin,-12.4611,130.8418,75.18,78,38,2.3,AU,1726167495
38,invercargill,-46.4,168.35,35.02,96,49,3.09,NZ,1726167496
39,lebu,-37.6167,-73.65,52.86,64,12,12.59,CL,1726167497
40,georgetown,5.4112,100.3354,78.75,89,20,4.61,MY,1726167313
41,marsh harbour,26.5412,-77.0636,83.41,71,100,4.29,BS,1726167499
42,sretensk,52.2453,117.7093,34.27,57,0,2.86,RU,1726167500
43,taoudenni,22.6783,-3.9836,102.42,13,1,7.92,ML,1726167501
44,remire-montjoly,4.9167,-52.2667,84.24,74,0,1.14,GF,1726167503
45,ketchikan,55.3422,-131.6461,57.67,82,100,13.8,US,1726167504
46,carnarvon,-24.8667,113.6333,71.46,73,0,3.27,AU,1726167505
47,kabansk,52.0486,106.6528,36.19,87,13,3.94,RU,1726167506
48,anadyr,64.75,177.4833,46.9,93,100,11.18,RU,1726167507
49,yellowknife,62.456,-114.3525,57.42,85,75,12.66,CA,1726167271
50,avarua,-21.2078,-159.775,77.05,78,20,8.05,CK,1726167509
51,grytviken,-54.2811,-36.5092,34.02,93,100,6.67,GS,1726167510
52,enewetak,11.3474,162.3373,82.94,77,100,8.19,MH,1726167512
53,yelizovo,53.1873,158.3805,51.94,66,75,8.95,RU,1726167513
54,kingston,17.997,-76.7936,90.55,70,40,20.71,JM,1726167515
55,adamstown,-25.066,-130.1015,66.06,67,12,19.95,PN,1726167516
56,arkalyk,50.2486,66.9114,53.11,49,8,16.35,KZ,1726167517
57,merizo village,13.2658,144.6691,81.16,93,100,11.65,GU,1726167518
58,puerto natales,-51.7236,-72.4875,41.45,60,40,28.77,CL,1726167519
59,cheboksary,56.1322,47.2519,66.79,59,0,6.71,RU,1726167279
60,udachny,66.4167,112.4,31.48,82,72,19.24,RU,1726167521
61,sitka,57.0531,-135.33,55.29,82,100,16.11,US,1726167522
62,opuwo,-18.0607,13.84,74.25,17,0,6.62,NA,1726167523
63,atafu village,-8.5421,-172.5159,82.33,77,36,15.75,TK,1726167524
64,kill devil hills,36.0307,-75.676,77.02,77,40,14.97,US,1726167525
65,tucuma,-0.1833,-50.05,87.31,63,95,12.68,BR,1726167527
66,el granada,37.5027,-122.4694,75.02,69,0,5.75,US,1726167528
67,santiago de cao,-7.9589,-79.2392,64.53,82,40,10.36,PE,1726167529
68,divnogorsk,55.9594,92.3619,30.69,97,73,3.78,RU,1726167530
69,el haouaria,37.05,11.0144,78.82,70,2,5.28,TN,1726167531
70,vila franca do campo,37.7167,-25.4333,73.81,70,99,3.83,PT,1726167532
71,blackmans bay,-43.0167,147.3167,48.52,92,100,4.65,AU,1726167533
72,kununurra,-15.7667,128.7333,85.98,23,100,9.22,AU,1726167345
73,warrenton,-28.114,24.8475,65.37,13,1,9.15,ZA,1726167535
74,antalaha,-14.9003,50.2788,68.72,82,22,8.32,MG,1726167536
75,west island,-12.1568,96.8225,78.78,83,40,14.97,CC,1726167537
76,punta arenas,-53.15,-70.9167,37.51,81,100,26.46,CL,1726167311
77,san luis de la loma,17.2706,-100.8939,85.98,72,41,5.64,MX,1726167540
78,badger,64.8,-147.5333,50.99,73,100,8.05,US,1726167541
79,iskateley,67.6803,53.1512,61.05,80,58,7.65,RU,1726167542
80,mana,5.6592,-53.7767,84.7,70,6,14.97,GF,1726167543
81,jamestown,42.097,-79.2353,82.02,43,0,8.01,US,1726167544
82,fort bragg,35.139,-79.006,82.9,58,20,9.22,US,1726167545
83,balkanabat,39.5108,54.3671,83.16,13,7,12.57,TM,1726167546
84,bentiu,9.2333,29.8333,77.5,74,100,4.05,SS,1726167547
85,vilyuysk,63.7553,121.6247,39.85,82,97,10.92,RU,1726167548
86,daru,-9.0763,143.2092,76.55,86,99,16.35,PG,1726167550
87,gongzhuling,43.5008,124.8198,62.83,65,100,7.49,CN,1726167551
88,pontes e lacerda,-15.2261,-59.3353,104.58,13,4,7.56,BR,1726167552
89,nova sintra,14.8667,-24.7167,81.41,81,17,16.33,CV,1726167553
90,ust-nera,64.5667,143.2,43.41,95,100,5.48,RU,1726167554
91,dudinka,69.4058,86.1778,49.51,91,100,9.95,RU,1726167555
92,constantia,44.1833,28.65,68.7,75,0,10.02,RO,1726167556
93,caleta de carquin,-11.0925,-77.6267,67.5,72,81,9.35,PE,1726167557
94,tazovsky,67.4667,78.7,50.95,92,100,10.74,RU,1726167558
95,same,-4.0667,37.7333,69.46,73,36,4.5,TZ,1726167559
96,prince albert,53.2001,-105.7677,55.35,94,100,11.5,CA,1726167562
97,kapa'a,22.0752,-159.319,82.72,74,20,9.22,US,1726167563
98,ilulissat,69.2167,-51.1,36.81,62,0,2.75,GL,1726167564
99,whitehorse,60.7161,-135.0538,47.1,89,100,17.27,CA,1726167565
100,ushuaia,-54.8,-68.3,33.46,86,100,16.11,AR,1726167566
101,puerto el triunfo,13.2833,-88.55,86.02,74,66,9.24,SV,1726167567
102,arraial do cabo,-22.9661,-42.0278,82.36,65,0,25.32,BR,1726167568
103,mugia,43.1041,-9.2179,61.92,84,97,14.76,ES,1726167569
104,puerto ayora,-0.7393,-90.3518,72.55,90,75,8.01,EC,1726167570
105,langepas,61.2544,75.2124,54.05,88,0,7.54,RU,1726167571
106,kavaratti,10.5669,72.642,80.19,87,100,7.65,IN,1726167572
107,hermanus,-34.4187,19.2345,55.8,85,100,2.66,ZA,1726167574
108,port lincoln,-34.7333,135.8667,51.37,76,10,5.61,AU,1726167575
109,hamilton,39.1834,-84.5333,90.25,35,0,6.91,US,1726167576
110,acolla,-11.7319,-75.5463,65.26,25,87,17.4,PE,1726167577
111,kolokani,13.5728,-8.0339,76.6,86,65,3.65,ML,1726167578
112,kharp,66.8014,65.8081,58.3,83,19,7.63,RU,1726167579
113,mendaha,-1.0333,103.5833,74.37,95,75,2.66,ID,1726167580
114,sabang,5.8933,95.3214,83.26,79,100,17.07,ID,1726167581
115,vernon,50.2581,-119.2691,66.92,55,63,1.14,CA,1726167303
116,dalby,-27.1833,151.2667,51.22,96,20,7.38,AU,1726167583
117,kourou,5.1552,-52.6478,85.5,66,0,11.95,GF,1726167584
118,xiva,41.3783,60.3639,73.49,21,11,16.11,UZ,1726167586
119,mersa matruh,31.3525,27.2453,82.6,65,0,9.22,EG,1726167587
120,ploneour-lanvern,47.9,-4.2833,53.92,71,0,11.5,FR,1726167588
121,tarancon,40.0085,-3.0073,72.99,37,73,15.64,ES,1726167589
122,cadale,2.7603,46.3222,77.81,84,94,19.46,SO,1726167590
123,longyearbyen,78.2186,15.6401,37.24,75,75,34.52,SJ,1726167591
124,darab,28.7519,54.5444,86.34,7,0,8.1,IR,1726167592
125,bargaal,11.2864,51.0773,81.95,73,44,8.63,SO,1726167593
126,nemuro,43.3236,145.575,60.55,82,100,4.85,JP,1726167594
127,hammerfest,70.6634,23.6821,63.05,59,20,14.97,NO,1726167595
128,humen,22.819,113.6731,84.11,81,95,6.11,CN,1726167596
129,nagqu,31.5,92.0,40.96,89,100,2.21,CN,1726167598
130,waitangi,-43.9535,-176.5597,51.82,95,100,5.99,NZ,1726167599
131,hithadhoo,-0.6,73.0833,83.57,73,100,6.49,MV,1726167600
132,tazacorte,28.629,-17.9293,74.37,69,75,17.27,ES,1726167601
133,grand falls-windsor,48.9332,-55.6649,68.5,48,3,1.01,CA,1726167602
134,haiku-pauwela,20.9219,-156.3051,82.22,69,20,18.01,US,1726167603
135,cananeia,-25.0147,-47.9267,76.78,59,0,6.8,BR,1726167604
136,general conesa,-40.1,-64.4333,72.09,17,8,21.92,AR,1726167605
137,verkhnevilyuysk,63.4453,120.3167,41.43,82,73,11.99,RU,1726167606
138,craig,40.5153,-107.5464,74.82,11,0,25.28,US,1726167607
139,faya-largeau,17.9257,19.1043,101.1,25,9,5.32,TD,1726167608
140,ribeira grande,38.5167,-28.7,75.6,73,40,13.0,PT,1726167610
141,kamina,-8.7386,24.9906,76.14,31,99,2.39,CD,1726167611
142,karakoyunlu,39.8704,43.6301,66.87,45,2,2.93,TR,1726167612
143,lompoc,34.6391,-120.4579,69.53,68,0,12.66,US,1726167613
144,uturoa,-16.7333,-151.4333,78.76,83,17,18.43,PF,1726167614
145,igarka,67.4667,86.5833,54.63,87,98,11.48,RU,1726167615
146,kirakira,-10.4544,161.9205,77.74,88,100,10.04,SB,1726167616
147,greymouth,-42.4667,171.2,43.48,96,100,8.25,NZ,1726167617
148,lazaro cardenas,17.9583,-102.2,87.24,65,13,6.91,MX,1726167618
149,regina,50.4501,-104.6178,67.98,73,75,21.85,CA,1726167619
150,pajapan,18.25,-94.7,85.95,69,100,2.84,MX,1726167621
151,nantucket,41.2835,-70.0995,67.14,87,2,7.58,US,1726167622
152,port augusta,-32.5,137.7667,43.57,81,6,6.49,AU,1726167623
153,chonchi,-42.6128,-73.8092,48.36,82,100,4.29,CL,1726167624
154,cedeira,43.6797,-8.0209,62.98,88,55,14.27,ES,1726167625
155,flying fish cove,-10.4217,105.6791,76.68,88,75,11.5,CX,1726167626
156,olonkinbyen,70.9221,-8.7187,36.28,97,100,33.98,SJ,1726167627
157,ironwood,46.4547,-90.171,81.41,42,0,4.61,US,1726167628
158,codrington,-38.2667,141.9667,51.55,85,100,6.93,AU,1726167629
159,hawaiian paradise park,19.5933,-154.9731,78.89,95,79,7.05,US,1726167630
160,fale old settlement,-9.3852,-171.2468,81.91,80,21,14.7,TK,1726167631
161,mumford,5.2618,-0.759,75.43,92,14,8.7,GH,1726167633
162,alajarvi,63.0,23.8167,52.29,80,100,2.08,FI,1726167634
163,tiksi,71.6872,128.8694,31.15,93,100,3.85,RU,1726167635
164,mount gambier,-37.8333,140.7667,52.3,74,100,6.55,AU,1726167636
165,damghan,36.1683,54.348,78.21,39,2,4.83,IR,1726167637
166,falmouth,50.1544,-5.0711,54.18,62,5,11.5,GB,1726167638
167,mopti,14.6667,-4.0,87.84,66,20,6.91,ML,1726167639
168,solnechnyy,50.7214,136.6319,43.75,43,1,13.51,RU,1726167640
169,bom jesus,-9.0744,-44.3586,97.75,13,1,11.21,BR,1726167641
170,san antonio de pale,-1.4014,5.6325,75.74,87,100,13.71,GQ,1726167642
171,vorgashor,67.5833,63.95,56.05,92,87,10.18,RU,1726167643
172,znamenskoye,57.1281,73.8282,53.02,96,72,5.91,RU,1726167645
173,susuman,62.7833,148.1667,39.45,98,100,2.8,RU,1726167646
174,jorpeland,59.0225,6.0408,51.73,93,100,14.67,NO,1726167647
175,portland,45.5234,-122.6762,65.32,84,100,9.22,US,1726167420
176,ewo,-0.8725,14.8206,77.79,77,60,3.31,CG,1726167650
177,rajaori,33.3833,74.3,69.15,64,0,5.46,IN,1726167651
178,margate,51.3813,1.3862,54.88,69,97,1.01,GB,1726167652
179,anantapur,14.6833,77.6,79.34,67,99,19.35,IN,1726167653
180,port elizabeth,-33.918,25.5701,62.31,91,20,6.91,ZA,1726167616
181,sarina,-21.4333,149.2167,65.61,1,73,5.77,AU,1726167655
182,eastbourne,50.7687,0.2845,50.99,78,16,1.99,GB,1726167657
183,el alto,-4.2714,-81.2147,68.59,71,37,17.4,PE,1726167658
184,isafjordur,66.0755,-23.124,42.84,81,93,3.44,IS,1726167659
185,talakan,50.3167,130.3667,37.83,59,0,5.44,RU,1726167660
186,tolanaro,-25.0319,46.9987,69.87,78,75,13.8,MG,1726167661
187,ha'il,27.5219,41.6907,98.62,15,20,6.91,SA,1726167662
188,kenai,60.5544,-151.2583,51.03,100,100,10.36,US,1726167578
189,aasiaat,68.7098,-52.8699,34.83,74,3,8.05,GL,1726167664
190,itoman,26.1247,127.6694,82.42,85,20,9.22,JP,1726167665
191,bredasdorp,-34.5322,20.0403,49.89,91,94,5.55,ZA,1726167666
192,port macquarie,-31.4333,152.9167,59.07,76,97,3.0,AU,1726167667
193,port alfred,-33.5906,26.891,63.18,96,23,3.0,ZA,1726167669
194,nacala,-14.5428,40.6728,73.18,87,5,6.02,MZ,1726167670
195,shubarkuduk,49.1447,56.4872,62.62,42,0,16.62,KZ,1726167671
196,kalevala,65.2,31.1667,58.89,96,95,4.92,RU,1726167672
197,thompson,55.7435,-97.8558,64.56,48,75,9.22,CA,1726167673
198,wainwright,52.839,-110.8572,65.07,49,100,9.04,CA,1726167674
199,tura,25.5198,90.2201,77.99,91,100,3.78,IN,1726167675
200,san patricio,28.017,-97.5169,92.75,40,0,2.98,US,1726167676
201,waingapu,-9.6567,120.2641,75.15,73,4,2.53,ID,1726167677
202,minot air force base,48.4209,-101.3391,86.74,20,96,25.01,US,1726167678
203,kapuskasing,49.4169,-82.4331,78.8,61,75,2.3,CA,1726167681
204,ouro sogui,15.6,-13.3167,93.22,62,0,2.3,SN,1726167682
205,port mathurin,-19.6833,63.4167,71.51,74,7,8.7,MU,1726167683
206,fayzabad,37.1166,70.58,57.72,32,0,1.99,AF,1726167684
207,howard springs,-12.497,131.047,75.11,78,50,4.68,AU,1726167685
208,puerto santa,-8.9906,-78.6456,66.97,77,70,10.67,PE,1726167686
209,embi,48.8264,58.1442,64.35,46,3,18.12,KZ,1726167687
210,brasileia,-11.0161,-68.7481,100.85,41,40,6.91,BR,1726167688
211,sassandra,4.95,-6.0833,75.34,90,94,8.37,CI,1726167689
212,tercan,39.7794,40.3925,67.53,29,0,2.71,TR,1726167691
213,kone,-21.0595,164.8658,64.83,94,0,3.85,NC,1726167692
214,homer,59.6425,-151.5483,50.77,96,100,14.97,US,1726167693
215,usinsk,65.9939,57.5281,59.45,77,100,12.15,RU,1726167695
216,al jawf,29.5,38.75,87.22,22,0,11.01,SA,1726167696
217,maintirano,-18.0667,44.0167,77.07,81,2,8.84,MG,1726167697
218,coruripe,-10.1256,-36.1756,76.89,71,60,14.94,BR,1726167698
219,puerto deseado,-47.7503,-65.8938,55.49,40,100,19.01,AR,1726167699
220,manado,1.487,124.8455,81.37,61,20,10.36,ID,1726167701
221,barra de santo antonio,-9.4047,-35.5072,76.93,76,9,14.85,BR,1726167702
222,altai,46.3722,96.2583,41.94,64,0,4.88,MN,1726167703
223,alofi,-19.0595,-169.9187,71.49,94,40,8.05,NU,1726167704
224,petropavlovsk-kamchatsky,53.0452,158.6483,50.59,66,75,8.95,RU,1726167705
225,charlotte amalie,18.3419,-64.9307,87.53,74,0,9.22,VI,1726167566
226,trapani,37.8333,12.6667,73.27,72,100,6.11,IT,1726167707
227,okhotsk,59.3833,143.3,50.25,83,100,11.74,RU,1726167708
228,ciudad bolivar,8.1222,-63.5497,95.58,45,91,4.85,VE,1726167709
229,torghay,49.6339,63.4981,60.46,37,0,19.3,KZ,1726167710
230,nueva esperanza,15.2667,-87.6,96.1,48,85,3.22,HN,1726167712
231,ghanzi,-21.5667,21.7833,78.58,20,100,6.67,BW,1726167713
232,wysokie mazowieckie,52.9166,22.5171,63.61,83,100,4.99,PL,1726167714
233,newman,37.3138,-121.0208,77.05,30,0,9.89,US,1726167715
234,fortuna,40.5982,-124.1573,63.36,95,40,14.97,US,1726167716
235,kavieng,-2.5744,150.7967,81.91,75,82,10.09,PG,1726167717
236,sangre grande,10.5835,-61.1177,87.76,79,100,7.9,TT,1726167718
237,dondo,-19.6094,34.7431,74.71,82,0,7.29,MZ,1726167719
238,alice springs,-23.7,133.8833,53.15,35,15,9.22,AU,1726167720
239,ribeira brava,32.65,-17.0667,76.01,51,37,1.5,PT,1726167721
240,arteche,12.2645,125.4048,76.87,94,100,5.12,PH,1726167723
241,usevia,-7.1,31.2333,77.88,25,28,4.32,TZ,1726167725
242,east london,-33.0153,27.9116,65.34,94,100,10.36,ZA,1726167726
243,santa maria do suacui,-18.1903,-42.4142,88.05,27,1,10.38,BR,1726167727
244,upata,8.0086,-62.3989,91.8,45,33,7.56,VE,1726167728
245,margaret river,-33.95,115.0667,53.01,85,100,9.53,AU,1726167729
246,hadibu,12.65,54.0333,78.13,82,23,16.6,YE,1726167731
247,eirunepe,-6.6603,-69.8736,106.92,17,81,2.86,BR,1726167732
248,omdurman,15.6445,32.4777,101.23,21,16,7.67,SD,1726167733
249,salinopolis,-0.6136,-47.3561,82.06,76,14,17.78,BR,1726167734
250,syumsi,57.1111,51.6149,59.97,90,54,5.88,RU,1726167736
251,hotan,37.0997,79.9269,69.62,32,0,6.67,CN,1726167616
252,ghadamis,30.1337,9.5007,96.73,27,99,14.27,LY,1726167738
253,kyshtovka,56.555,76.6271,53.92,96,93,7.29,RU,1726167739
254,santana,-0.0583,-51.1817,93.38,55,20,13.8,BR,1726167742
255,tamanrasset,22.785,5.5228,73.31,73,40,4.61,DZ,1726167743
256,bushehr,28.9684,50.8385,89.69,70,0,4.61,IR,1726167744
257,karachayevsk,43.774,41.9142,58.82,91,8,7.23,RU,1726167745
258,akora,34.0036,72.1261,83.89,48,0,6.73,PK,1726167746
259,ataq,14.5377,46.8319,82.45,44,94,10.89,YE,1726167748
260,bantval,12.9,75.0333,76.15,94,40,3.44,IN,1726167749
261,nar'yan-mar,67.6713,53.087,61.07,80,66,7.7,RU,1726167750
262,sungai raya,0.7,108.9,79.56,82,13,7.18,ID,1726167751
263,vilhena,-12.7406,-60.1458,91.62,43,11,8.05,BR,1726167752
264,hailey,43.5196,-114.3153,60.8,46,75,5.01,US,1726167753
265,kulhudhuffushi,6.6221,73.07,81.88,81,86,7.92,MV,1726167708
266,barreirinhas,-2.7469,-42.8264,85.73,53,0,16.04,BR,1726167755
267,isangel,-19.55,169.2667,73.15,89,42,8.61,VU,1726167756
268,novaya igirma,57.1334,103.9112,43.61,76,100,4.5,RU,1726167757
269,san mariano,7.5,126.0,74.5,85,100,3.06,PH,1726167758
270,at taraf,25.3628,49.725,93.74,34,0,4.59,SA,1726167760
271,sarny,51.338,26.6019,63.72,91,85,3.58,UA,1726167761
272,bismarck,46.8083,-100.7837,85.86,31,0,32.21,US,1726167588
273,talcahuano,-36.7167,-73.1167,56.88,54,0,14.97,CL,1726167763
274,san pedro de alcantara,36.4884,-4.9912,79.18,54,100,0.56,ES,1726167764
275,owase,34.0667,136.2,73.69,90,0,1.81,JP,1726167765
276,bayanhongor,46.7167,100.1167,37.27,95,100,2.71,MN,1726167766
277,gandu,-13.7439,-39.4867,78.13,54,98,6.29,BR,1726167767
278,zemetchino,53.4973,42.6163,69.78,39,100,8.95,RU,1726167768
279,inari,68.906,27.0288,59.27,70,100,10.4,FI,1726167769
280,west fargo,46.875,-96.9004,84.25,45,0,19.57,US,1726167770
281,luba,3.4568,8.5547,78.01,90,87,6.87,GQ,1726167772
282,nchelenge,-9.3451,28.734,78.21,42,45,4.54,ZM,1726167773
283,horta,38.5333,-28.6333,74.84,80,40,13.0,PT,1726167774
284,chietla,18.5167,-98.5833,81.32,66,100,3.65,MX,1726167775
285,weno,7.4515,151.8468,80.55,89,100,10.36,FM,1726167776
286,saint-joseph,-21.3667,55.6167,70.18,77,1,3.29,RE,1726167777
287,mcalester,34.9334,-95.7697,87.89,35,0,8.05,US,1726167778
288,taro,-8.3862,115.28,62.15,100,41,0.07,ID,1726167779
289,tateyama,34.9833,139.8667,80.64,82,0,11.32,JP,1726167780
290,papatowai,-46.5619,169.4708,38.8,90,65,2.15,NZ,1726167678
291,motygino,58.1831,94.7592,40.19,91,100,0.58,RU,1726167782
292,magadan,59.5667,150.8,46.49,92,100,10.25,RU,1726167783
293,harij,23.7,71.9,82.96,71,87,12.17,IN,1726167785
294,karasburg,-28.0167,18.75,60.49,21,0,9.19,NA,1726167786
295,kodiak,57.79,-152.4072,54.91,76,40,17.27,US,1726167787
296,cabo san lucas,22.8909,-109.9124,93.51,63,100,8.01,MX,1726167768
297,goz beida,13.95,20.55,78.24,69,100,10.11,TD,1726167790
298,praia da vitoria,38.7333,-27.0667,77.76,73,20,6.8,PT,1726167791
299,nyzhni sirohozy,46.8484,34.3804,70.3,75,62,6.76,UA,1726167792
300,sijunjung,-0.6876,100.9537,72.99,90,100,0.74,ID,1726167793
301,ta`u,-14.2336,-169.5144,78.85,84,98,21.97,AS,1726167795
302,saint-leu,-21.15,55.2833,70.66,91,1,3.89,RE,1726167796
303,sainte-adresse,49.5089,0.0845,55.83,58,75,20.71,FR,1726167797
304,kidal,18.4411,1.4078,95.2,31,27,8.01,ML,1726167798
305,yorkton,51.2167,-102.4677,66.04,88,40,19.57,CA,1726167799
306,minab,27.1467,57.0801,88.05,55,0,3.06,IR,1726167733
307,kisi,9.0833,3.85,74.7,93,22,4.16,NG,1726167801
308,krasnokamensk,50.0979,118.0369,38.08,45,30,3.13,RU,1726167802
309,hpa-an,16.8906,97.6333,74.88,97,100,2.26,MM,1726167803
310,minas de marcona,-15.2119,-75.1103,66.69,46,6,13.22,PE,1726167804
311,souillac,-20.5167,57.5167,68.38,83,20,5.75,MU,1726167805
312,oyama,36.3,139.8,81.3,80,14,2.95,JP,1726167807
313,bodo,67.28,14.405,58.77,57,75,18.41,NO,1726167808
314,saipan,15.1355,145.701,84.9,74,20,14.97,MP,1726167809
315,vieste,41.8825,16.175,77.34,56,45,16.46,IT,1726167810
316,egilsstadir,65.2653,-14.3948,40.91,56,40,25.32,IS,1726167811
317,lorengau,-2.0226,147.2712,80.15,83,100,7.07,PG,1726167812
318,college,64.8569,-147.8028,51.08,82,100,8.05,US,1726167602
319,ntoum,0.3833,9.7833,76.98,87,98,4.79,GA,1726167814
320,castillos,-34.1667,-53.8333,56.44,65,83,9.66,UY,1726167815
321,khenchela,35.4358,7.1433,75.0,32,97,13.15,DZ,1726167816
322,leava,-14.3,-178.1667,79.79,83,100,20.36,WF,1726167818
323,miri,4.4148,114.0089,78.94,94,40,3.44,MY,1726167819
324,san fernando de apure,7.8878,-67.4724,84.34,86,100,2.24,VE,1726167820
325,tramandai,-29.9847,-50.1336,63.12,93,100,11.41,BR,1726167821
326,palpa,-14.5336,-75.1856,83.03,31,49,10.58,PE,1726167822
327,rudsar,37.1376,50.288,74.95,75,47,5.82,IR,1726167823
328,quepos,9.4236,-84.1652,83.1,77,100,4.81,CR,1726167824
329,kalianget,-7.05,113.9333,79.66,65,2,12.21,ID,1726167827
330,san matias,-16.3667,-58.4,107.2,12,0,6.06,BO,1726167829
331,berdigestyakh,62.0989,126.6992,42.64,94,100,12.55,RU,1726167830
332,saint-pierre,-21.3393,55.4781,71.28,73,40,3.44,RE,1726167831
333,bubaque,11.2833,-15.8333,75.79,96,100,25.21,GW,1726167832
334,alesund,62.4723,6.1549,48.33,82,75,23.02,NO,1726167833
335,longfeng,46.55,125.1167,55.31,41,98,15.57,CN,1726167834
336,ati,13.2154,18.3353,87.31,54,30,5.41,TD,1726167835
337,severo-yeniseyskiy,60.3725,93.0408,39.88,98,100,2.06,RU,1726167836
338,zheleznodorozhnyy,55.7503,38.0042,69.35,29,100,11.97,RU,1726167837
339,abepura,-2.6333,140.5833,77.81,94,20,2.3,ID,1726167838
340,vilyuchinsk,52.9306,158.4028,52.07,87,100,8.14,RU,1726167840
341,monchegorsk,67.9397,32.8739,57.92,93,99,7.94,RU,1726167841
342,indianola,41.3581,-93.5574,86.92,40,100,4.0,US,1726167842
343,yaren,-0.5472,166.916,82.67,74,99,12.26,NR,1726167843
344,crane,31.3974,-102.3501,89.29,29,0,14.58,US,1726167844
345,utrik,11.2278,169.8474,82.67,76,25,11.03,MH,1726167845
346,rikaze,29.25,88.8833,57.15,49,100,4.94,CN,1726167846
347,necochea,-38.5473,-58.7368,62.08,46,64,8.03,AR,1726167847
348,kristiansund,63.1115,7.732,47.05,81,75,11.5,NO,1726167848
349,charters towers,-20.1,146.2667,59.4,94,0,1.57,AU,1726167850
350,luchegorsk,46.4764,134.2569,51.85,83,100,6.4,RU,1726167852
351,rosporden,47.9667,-3.8333,53.2,78,6,8.41,FR,1726167853
352,mukalla,14.5425,49.1242,82.02,77,69,2.68,YE,1726167854
353,berdyansk,46.7503,36.7944,73.27,56,22,4.97,UA,1726167855
354,sao tome,0.3365,6.7273,78.84,78,75,8.63,ST,1726167856
355,moya,28.0906,-15.5883,67.87,79,23,17.74,ES,1726167857
356,lingcheng,22.7072,110.3492,77.74,86,10,0.83,CN,1726167858
357,brigantine,39.4101,-74.3646,76.14,75,0,10.36,US,1726167860
358,sena madureira,-9.0656,-68.6569,110.39,14,13,1.9,BR,1726167862
359,chegdomyn,51.1167,133.0167,31.86,72,3,4.14,RU,1726167863
360,metropolis,37.1512,-88.732,78.98,50,0,9.22,US,1726167864
361,vazante,-17.9869,-46.9078,89.73,19,0,6.55,BR,1726167865
362,conde,-7.2597,-34.9075,81.86,57,40,17.27,BR,1726167657
363,cromer,52.9312,1.2989,51.8,66,74,3.0,GB,1726167867
364,morehead city,34.7229,-76.726,83.05,71,100,8.99,US,1726167868
365,pandan,14.0453,124.1694,79.21,90,100,5.59,PH,1726167869
366,turpan,42.9333,89.1667,74.5,29,7,2.62,CN,1726167870
367,falkenberg,56.9055,12.4912,51.26,85,100,6.26,SE,1726167871
368,trancas,-26.2314,-65.2803,77.77,27,0,5.35,AR,1726167872
369,natal,-5.795,-35.2094,82.62,57,40,20.71,BR,1726167615
370,nuku'alofa,-21.1333,-175.2,70.14,100,75,12.66,TO,1726167698
371,kilinochchi,9.3961,80.3982,81.07,78,85,11.99,LK,1726167876
372,chos malal,-37.3781,-70.2709,66.13,11,2,14.03,AR,1726167877
373,sisimiut,66.9395,-53.6735,40.91,73,0,3.94,GL,1726167878
374,cidreira,-30.1811,-50.2056,62.53,92,99,15.21,BR,1726167879
375,ak'ordat,15.5486,37.8867,89.62,48,51,3.06,ER,1726167880
376,arima,10.6333,-61.2833,87.33,79,20,6.91,TT,1726167881
377,rio preto da eva,-2.6994,-59.6997,108.77,12,0,5.32,BR,1726167882
378,sengkang,-4.1279,120.0297,70.88,91,16,3.29,ID,1726167883
379,aiquile,-18.2041,-65.1807,78.44,23,0,16.46,BO,1726167884
380,porto novo,6.4965,2.6036,78.62,86,79,6.93,BJ,1726167633
381,kabalo,-6.05,26.9167,85.37,30,100,2.75,CD,1726167887
382,apaxtla de castrejon,18.15,-99.8667,75.61,76,85,1.25,MX,1726167888
383,kalmunai,7.4167,81.8167,84.11,74,100,2.08,LK,1726167889
384,kondagaon,19.6,81.6667,71.98,97,100,3.76,IN,1726167890
385,coahuayana de hidalgo,18.7,-103.6583,90.32,60,4,6.22,MX,1726167891
386,taikang,46.8333,124.4167,54.07,42,100,14.2,CN,1726167892
387,alotau,-10.3069,150.4462,73.36,96,100,3.67,PG,1726167893
388,bhimunipatnam,17.8833,83.4333,83.71,74,100,6.98,IN,1726167894
389,krasnoural'sk,58.3638,60.0407,50.74,86,100,4.5,RU,1726167895
390,carutapera,-1.195,-46.02,83.86,67,13,13.02,BR,1726167896
391,clayton,33.5335,-84.3666,72.57,82,100,19.57,US,1726167898
392,princeville,45.7668,-61.2985,69.76,59,0,11.5,CA,1726167899
393,qusmuryn,52.4503,64.6311,55.78,80,27,9.42,KZ,1726167900
394,kiama,-34.6833,150.8667,52.38,69,100,5.01,AU,1726167901
395,benguela,-12.5763,13.4055,71.11,85,46,4.83,AO,1726167902
396,todos santos,23.45,-110.2167,83.44,81,99,6.89,MX,1726167903
397,badagara,11.6,75.5833,78.22,87,100,4.59,IN,1726167904
398,kraslava,55.8951,27.168,62.37,85,100,4.32,LV,1726167905
399,tavda,58.0425,65.2726,52.41,88,0,2.91,RU,1726167670
400,ancud,-41.8697,-73.8203,48.02,81,100,7.85,CL,1726167817
401,altamont,42.2068,-121.7372,58.84,61,100,5.01,US,1726167908
402,papao,-17.75,-149.55,80.28,81,50,25.59,PF,1726167910
403,nishinoomote,30.7333,131.0,82.81,77,3,17.94,JP,1726167911
404,laives,46.4228,11.3348,51.96,74,100,3.31,IT,1726167912
405,fort mcmurray,56.7268,-111.381,53.19,93,100,3.44,CA,1726167913
406,saint-louis,16.3333,-15.0,99.19,23,100,5.61,SN,1726167914
407,hinton,53.4001,-117.5857,53.31,77,100,2.42,CA,1726167915
408,lamu,-2.2717,40.902,76.64,84,42,15.75,KE,1726167916
409,puerto real,36.5282,-6.1901,77.13,83,0,11.5,ES,1726167917
410,brisas de zicatela,15.8369,-97.0419,88.32,70,20,9.22,MX,1726167919
411,sao joao da barra,-21.6403,-41.0511,80.69,77,0,27.49,BR,1726167920
412,kon tum,14.35,108.0,71.51,99,100,0.49,VN,1726167922
413,guerrero negro,27.9769,-114.0611,74.34,60,2,14.79,MX,1726167923
414,tucupita,9.0622,-62.051,92.28,51,90,5.61,VE,1726167924
415,schwarzenbek,53.5,10.4833,52.66,88,0,4.68,DE,1726167925
416,andkhoy,36.9529,65.1238,71.1,14,0,8.37,AF,1726167926
417,aydarken,39.9443,71.3429,51.85,36,100,2.13,KG,1726167927
418,holualoa,19.6228,-155.9522,79.56,84,20,6.91,US,1726167928
419,ouani,-12.1322,44.4258,75.79,80,6,2.91,KM,1726167929
420,khanbari,27.3747,87.2039,77.16,73,100,2.55,NP,1726167930
421,yarim,14.298,44.3779,61.34,71,100,5.66,YE,1726167931
422,sinabang,2.4803,96.3801,79.86,83,100,2.55,ID,1726167932
423,qaqortoq,60.7167,-46.0333,44.78,94,100,3.8,GL,1726167934
424,sandnessjoen,66.0217,12.6316,51.91,82,75,20.71,NO,1726167935
425,poputnaya,44.5125,41.4392,65.07,82,100,7.34,RU,1726167936
426,camayenne,9.535,-13.6878,80.69,83,75,4.61,GN,1726167937
427,geneina,13.45,22.45,74.41,73,100,12.86,SD,1726167938
428,karratha,-20.7377,116.8463,80.1,39,0,10.09,AU,1726167939
429,antofagasta,-23.65,-70.4,60.08,83,53,10.63,CL,1726167940
430,sambava,-14.2667,50.1667,72.28,79,11,13.4,MG,1726167941
431,vila velha,-20.3297,-40.2925,80.55,72,0,19.57,BR,1726167943
432,port victoria,0.0939,33.9756,72.93,69,94,10.74,KE,1726167945
433,fort st. john,56.2499,-120.8529,53.49,76,20,5.75,CA,1726167946
434,port saint john's,-31.6229,29.5448,69.51,92,61,6.62,ZA,1726167947
435,progreso,21.2833,-89.6667,91.13,55,59,10.92,MX,1726167948
436,kendari,-3.945,122.4989,70.25,95,100,3.38,ID,1726167949
437,uruacu,-14.5247,-49.1408,97.57,15,4,2.73,BR,1726167950
438,ambodifotatra,-16.9833,49.85,74.59,73,35,9.82,MG,1726167951
439,arvayheer,46.2639,102.775,39.29,90,100,2.48,MN,1726167953
440,malango,-2.9627,119.9001,61.21,98,53,2.57,ID,1726167879
441,casper,42.8666,-106.3131,79.39,20,0,20.0,US,1726167956
442,celaru,44.05,24.1333,71.74,43,0,3.31,RO,1726167957
443,alghero,40.5589,8.3181,62.69,72,40,6.91,IT,1726167958
444,mariinsk,56.2139,87.7472,41.81,89,100,6.22,RU,1726167959
445,topolobampo,25.6,-109.05,94.91,52,75,13.8,MX,1726167960
446,purpe,64.4803,76.6897,57.02,83,1,10.67,RU,1726167961
447,klyuchi,52.2667,79.1667,46.56,87,74,10.11,RU,1726167962
448,matthew town,20.95,-73.6667,85.93,71,100,8.95,BS,1726167963
449,rio grande,-32.035,-52.0986,56.82,96,100,18.79,BR,1726167964
450,mongo,12.1844,18.693,81.82,71,44,2.15,TD,1726167965
451,sakakah,29.9697,40.2064,92.77,17,0,12.03,SA,1726167967
452,koupela,12.1794,-0.3517,80.13,81,100,5.7,BF,1726167968
453,algarrobo,10.1869,-74.5753,92.44,56,97,7.34,CO,1726167969
454,mata de sao joao,-12.5303,-38.2992,78.82,59,29,8.55,BR,1726167970
455,i-n-salah,27.1935,2.4607,98.78,15,88,7.81,DZ,1726167971
456,arklow,52.7931,-6.1414,49.82,65,12,6.58,IE,1726167973
457,villa ojo de agua,-29.5,-63.6938,71.13,23,0,13.85,AR,1726167974
458,brasilia de minas,-16.2064,-44.4333,88.93,20,4,8.03,BR,1726167975
459,ningyang,35.7642,116.7914,73.71,86,100,5.35,CN,1726167977
460,guapimirim,-22.5372,-42.9819,95.02,16,0,3.47,BR,1726167978
461,bathsheba,13.2167,-59.5167,86.61,79,40,11.5,BB,1726167979
462,adi keyh,14.8444,39.3772,68.99,45,100,2.51,ER,1726167980
463,xining,36.6167,101.7667,54.73,95,100,2.13,CN,1726167981
464,fomboni,-12.28,43.7425,76.82,81,81,6.69,KM,1726167983
465,yinchuan,38.4681,106.2731,65.01,69,100,4.54,CN,1726167984
466,jinghong,21.991,100.7341,69.35,99,100,1.19,CN,1726167985
467,laibin,23.7,109.2667,79.95,81,1,3.15,CN,1726167986
468,rawson,-43.3002,-65.1023,66.49,20,0,16.11,AR,1726167988
469,itarantim,-15.6597,-40.0656,84.96,34,95,12.71,BR,1726167989
470,nuuk,64.1835,-51.7216,50.61,71,75,6.91,GL,1726167990
471,luganville,-15.5333,167.1667,76.01,85,35,7.2,VU,1726167847
472,ceeldheer,3.8488,47.1806,77.7,80,100,18.7,SO,1726167739
473,mata-utu,-13.2816,-176.1745,80.11,85,15,22.26,WF,1726167993
474,luanda,-8.8368,13.2343,73.4,83,75,8.05,AO,1726167994
475,tauranga,-37.6861,176.1667,51.85,91,91,3.53,NZ,1726167995
476,new norfolk,-42.7826,147.0587,49.71,98,89,1.9,AU,1726167996
477,tevriz,57.509,72.4042,52.95,96,78,4.92,RU,1726167997
478,damasak,13.0977,12.4952,81.43,72,100,12.17,NG,1726167998
479,prince rupert,54.3161,-130.3201,55.49,88,100,12.66,CA,1726168000
480,luderitz,-26.6481,15.1594,54.45,74,0,7.83,NA,1726168001
481,aykhal,66.0,111.5,28.99,88,30,19.84,RU,1726168002
482,ensenada,31.8667,-116.6167,72.95,71,26,8.77,MX,1726168004
483,puerto baquerizo moreno,-0.9,-89.6,76.19,88,40,17.27,EC,1726168005
484,saint-francois,46.4154,3.9054,49.68,83,52,3.44,FR,1726168006
485,ola,59.5833,151.2833,46.81,90,100,11.07,RU,1726168007
486,cidade velha,14.9167,-23.6167,84.67,74,40,14.97,CV,1726168008
487,st. john's,47.5649,-52.7093,68.27,57,5,3.0,CA,1726168009
488,tsiombe,-25.3,45.4833,65.17,70,0,10.58,MG,1726167942
489,argo,37.6333,22.7333,77.74,54,0,1.77,GR,1726168011
490,red hill,33.9996,-79.2581,83.08,60,100,11.81,US,1726167812
491,vegreville,53.5001,-112.0518,61.81,40,99,11.03,CA,1726168014
492,talachyn,54.4097,29.6917,63.45,87,100,16.75,BY,1726168015
493,xinyuan,37.3,99.0,40.73,88,9,5.08,CN,1726168016
494,coquimbo,-29.9533,-71.3436,55.13,76,100,6.91,CL,1726168017
495,pisco,-13.7,-76.2167,64.45,82,20,10.36,PE,1726168018
496,pointe michel,15.25,-61.3833,85.32,75,25,12.95,DM,1726168019
497,keren,15.7778,38.4581,78.26,58,87,1.97,ER,1726168020
498,galliano,29.4422,-90.2992,83.7,68,89,11.77,US,1726168021
499,hasaki,35.7333,140.8333,80.28,84,0,12.59,JP,1726168022
500,champerico,14.3,-91.9167,86.0,71,10,8.28,GT,1726168023
501,iquique,-20.2208,-70.1431,62.13,78,41,5.5,CL,1726168025
502,tocopilla,-22.092,-70.1979,65.43,72,17,13.38,CL,1726168026
503,freetown,8.484,-13.2299,77.63,84,99,1.95,SL,1726168028
504,valparaiso,-33.0393,-71.6273,61.03,62,0,11.5,CL,1726168029
505,svetlyy,54.675,20.1347,55.92,89,100,10.27,RU,1726168030
506,buka,40.8108,69.1986,66.58,21,100,1.19,UZ,1726168031
507,north bend,43.4065,-124.2243,64.26,82,100,5.75,US,1726167904
508,bangassou,4.7413,22.8184,69.44,98,39,2.28,CF,1726168033
509,sahy,48.0741,18.9495,55.99,92,100,4.81,SK,1726168034
510,padina,45.1181,20.7272,69.6,59,99,7.99,RS,1726168035
511,cooper's town,26.8667,-77.5167,83.05,68,100,4.74,BS,1726168037
512,boa vista,2.8197,-60.6733,94.98,38,40,5.75,BR,1726168038
513,khovd,48.0056,91.6419,50.27,71,49,2.68,MN,1726168039
514,krasnogorskiy,54.6025,61.231,50.38,81,2,4.05,RU,1726168040
515,vitorino freire,-4.0667,-45.1667,101.07,20,21,6.96,BR,1726168041
516,lata,40.1629,-8.3327,62.01,82,0,4.85,PT,1726168042
517,kuala belait,4.5833,114.1833,78.75,85,71,7.31,BN,1726168043
518,palmer,42.1584,-72.3287,80.53,40,40,8.05,US,1726167935
519,carbonear,47.7332,-53.2148,67.23,55,88,2.3,CA,1726168045
520,nosy varika,-20.5833,48.5333,71.83,89,98,9.1,MG,1726168046
521,myitkyina,25.3833,97.4,74.32,99,76,0.87,MM,1726168047
522,mar del plata,-38.0023,-57.5575,56.95,80,99,11.01,AR,1726168049
523,jennings,38.7192,-90.2604,85.14,40,100,10.36,US,1726168050
524,malvan,16.0667,73.4667,78.8,83,90,3.78,IN,1726168051
525,vorkuta,67.5,64.0,55.89,92,93,9.86,RU,1726168052
526,belyy yar,53.6039,91.3903,46.29,81,0,8.95,RU,1726168053
527,alto parana,-23.1289,-52.3189,97.59,12,1,10.47,BR,1726168054
528,lubang,13.8584,120.124,82.02,82,100,11.83,PH,1726168055
529,mitu,1.1983,-70.1733,93.58,45,100,1.88,CO,1726168056
530,hassi messaoud,31.6804,6.0729,89.33,26,0,11.48,DZ,1726168057
531,oroqen zizhiqi,50.5667,123.7167,34.23,59,0,4.03,CN,1726168058
532,axim,4.8699,-2.2405,75.29,92,13,7.07,GH,1726168060
533,ingeniero jacobacci,-41.3427,-69.5448,52.14,32,3,24.11,AR,1726168061
534,brookings,44.3114,-96.7984,82.4,42,0,25.32,US,1726167942
535,kuta,-8.7233,115.1723,78.75,94,40,3.44,ID,1726168063
536,trujillo,-8.116,-79.03,64.36,82,98,10.36,PE,1726168064
537,plock,52.5468,19.7064,51.35,86,100,13.42,PL,1726168065
538,yerofey pavlovich,53.9667,121.9667,30.52,77,0,4.03,RU,1726168066
539,conduaga,8.862,117.4893,79.16,90,100,10.51,PH,1726168067
540,santo domingo zanatepec,16.4831,-94.3475,91.45,56,11,5.68,MX,1726168068
541,ezine,39.7856,26.3408,72.45,72,0,2.37,TR,1726168069
542,emmett,43.8735,-116.4993,64.65,56,100,1.01,US,1726168070
543,northam,51.0333,-4.2167,53.62,79,40,17.98,GB,1726168072
544,tulun,54.5611,100.5792,34.88,93,0,3.85,RU,1726168073
545,recani,31.2846,-4.2688,79.86,38,0,10.25,MA,1726168074
546,xilin hot,43.9667,116.0333,51.04,65,100,19.17,CN,1726167833
547,feijo,-8.1642,-70.3536,107.69,16,7,0.78,BR,1726168076
548,rio hondo,15.0667,-89.5833,90.66,52,20,6.91,GT,1726168077
549,socorro,31.6546,-106.3033,94.19,12,0,14.97,US,1726168078
550,banda aceh,5.5577,95.3222,80.38,82,100,10.54,ID,1726168079
551,thinadhoo,0.5333,72.9333,83.43,73,0,5.32,MV,1726168080
552,york,40.1254,-77.0,81.73,47,40,10.36,US,1726168081
553,warrnambool,-38.3833,142.4833,52.79,83,100,10.33,AU,1726168082
554,ipora,-16.4419,-51.1178,96.93,14,1,6.06,BR,1726168083
555,aweil,8.7682,27.4002,76.96,81,77,4.68,SS,1726168085
556,pingliang,35.5392,106.6861,63.3,80,100,12.77,CN,1726168086
557,gadzhiyevo,69.2551,33.3362,59.76,85,39,11.14,RU,1726168082
558,toukh,30.3539,31.2007,82.35,71,0,11.99,EG,1726168088
559,mponela,-13.5319,33.7401,69.93,43,41,4.5,MW,1726168089
560,launceston,-41.45,147.1667,44.24,100,20,8.05,AU,1726168090
561,morondava,-20.2833,44.2833,76.23,73,5,9.73,MG,1726168091
562,anavyssos,37.7333,23.95,79.68,72,0,4.43,GR,1726168092
563,ebon,4.582,168.6964,82.98,63,39,5.3,MH,1726168093
564,thunder bay,48.4001,-89.3168,71.78,64,5,7.99,CA,1726168094
565,la libertad,-2.2333,-80.9,74.86,78,75,10.36,EC,1726168096
566,berezovyy,51.6667,135.7,42.33,52,41,8.86,RU,1726168097
567,kushiro,42.975,144.3747,56.84,79,100,2.26,JP,1726168098
568,kyzyl,51.7,94.45,50.13,81,100,2.71,RU,1726168100
569,bengkulu,-3.8004,102.2655,75.25,87,99,5.08,ID,1726168101
570,palikir - national government center,6.9248,158.1611,81.18,78,100,7.11,FM,1726168102
571,pontianak,-0.0333,109.3333,78.78,100,100,3.44,ID,1726168103
572,baiti,13.745,-14.7482,71.19,97,100,7.9,SN,1726168104
573,lindesberg,59.592,15.2304,51.12,94,100,3.29,SE,1726168105
574,bayan,46.0833,127.4,54.95,66,100,14.05,CN,1726168107
575,fulton,33.7668,-84.4499,72.48,79,100,19.57,US,1726168108
576,la passe,45.5549,-0.8967,58.95,68,0,11.25,FR,1726168109
577,nova vicosa,-17.8919,-39.3719,78.82,65,7,12.71,BR,1726168110
578,la gi,10.6667,107.7833,79.47,89,100,10.38,VN,1726168111
579,lihue,21.9789,-159.3672,81.99,75,0,6.91,US,1726168112
580,tynda,55.1667,124.7167,31.89,78,7,5.75,RU,1726168113
581,syas'stroy,60.1367,32.5691,65.07,70,67,7.05,RU,1726168114
582,ermoupolis,37.4423,24.9425,78.12,58,0,1.01,GR,1726168115
583,choibalsan,48.0667,114.5,46.53,36,100,4.14,MN,1726168116
584,anna regina,7.2644,-58.5077,87.12,65,6,10.8,GY,1726168117
585,abay,49.6311,72.8539,44.6,65,77,8.99,KZ,1726168119
586,indramayu,-6.3264,108.32,78.6,71,7,9.35,ID,1726168120
587,moussoro,13.6408,16.4901,92.35,46,7,2.26,TD,1726168121
588,axum,14.1245,38.7244,61.34,77,100,4.32,ET,1726168122
589,joshua tree,34.1347,-116.3131,87.03,15,0,5.01,US,1726168123
