City_ID,City,Lat,Lng,Max Temp,Humidity,Cloudiness,Wind Speed,Country,Date
0,preobrazheniye,42.9019,133.9064,18.97,53,100,2.19,RU,2024-09-16 02:50:08
1,bolpur,23.6667,87.7167,25.77,91,100,8.6,IN,2024-09-16 02:50:09
2,eirunepe,-6.6603,-69.8736,29.7,44,75,0.97,BR,2024-09-16 02:50:10
3,college,64.8569,-147.8028,10.99,73,75,2.57,US,2024-09-16 02:47:03
4,amungan,15.3652,119.9582,27.85,82,100,4.33,PH,2024-09-16 02:50:12
5,aykhal,66.0,111.5,0.64,81,100,3.37,RU,2024-09-16 02:50:13
6,vorkuta,67.5,64.0,13.07,97,99,4.61,RU,2024-09-16 02:50:14
7,port-aux-francais,-49.35,70.2167,2.83,82,99,15.16,TF,2024-09-16 02:50:15
8,i-n-salah,27.1935,2.4607,32.99,18,0,3.99,DZ,2024-09-16 02:50:16
9,atafu village,-8.5421,-172.5159,28.23,76,54,3.36,TK,2024-09-16 02:50:18
10,lebu,-37.6167,-73.65,7.83,91,51,5.07,CL,2024-09-16 02:50:19
11,wailua homesteads,22.0669,-159.378,28.44,75,0,7.72,US,2024-09-16 02:50:20
12,val-d'or,48.1002,-77.7828,20.05,73,40,3.09,CA,2024-09-16 02:50:21
13,grytviken,-54.2811,-36.5092,-2.33,89,99,6.29,GS,2024-09-16 02:50:22
14,albany,42.6001,-73.9662,20.75,69,39,1.81,US,2024-09-16 02:50:23
15,lihue,21.9789,-159.3672,28.77,68,0,7.72,US,2024-09-16 02:50:24
16,bardai,11.65,7.2333,21.61,94,26,2.78,NG,2024-09-16 02:50:25
17,robertsport,6.7533,-11.3686,23.87,92,100,0.29,LR,2024-09-16 02:50:26
18,bowen,-20.0167,148.2333,24.29,56,61,9.88,AU,2024-09-16 02:50:28
19,isafjordur,66.0755,-23.124,2.78,69,100,2.31,IS,2024-09-16 02:50:29
20,utrik,11.2278,169.8474,28.71,75,100,4.14,MH,2024-09-16 02:50:30
21,pelabuhanratu,-6.9875,106.5514,29.46,51,10,1.94,ID,2024-09-16 02:50:31
22,kruisfontein,-34.0033,24.7314,13.53,81,100,4.5,ZA,2024-09-16 02:50:32
23,porto novo,6.4965,2.6036,24.33,92,100,3.34,BJ,2024-09-16 02:50:33
24,dudinka,69.4058,86.1778,6.21,68,94,7.88,RU,2024-09-16 02:50:34
25,waitangi,-43.9535,-176.5597,11.01,85,70,1.79,NZ,2024-09-16 02:50:35
26,adamstown,-25.066,-130.1015,20.27,85,100,6.95,PN,2024-09-16 02:50:36
27,puerto baquerizo moreno,-0.9,-89.6,21.19,87,100,5.17,EC,2024-09-16 02:50:37
28,kone,-21.0595,164.8658,22.82,54,84,4.83,NC,2024-09-16 02:50:38
29,ribeira grande,38.5167,-28.7,23.76,81,100,4.47,PT,2024-09-16 02:50:40
30,keflavik,64.0049,-22.5624,4.24,81,0,4.12,IS,2024-09-16 02:50:41
31,haiku-pauwela,20.9219,-156.3051,29.01,62,20,10.73,US,2024-09-16 02:50:42
32,khandyga,62.6667,135.6,7.83,55,26,1.24,RU,2024-09-16 02:50:43
33,correntina,-13.3433,-44.6367,22.34,36,2,1.49,BR,2024-09-16 02:50:44
34,zhangatas,43.5667,69.75,14.83,44,89,3.87,KZ,2024-09-16 02:50:45
35,edinburgh of the seven seas,-37.0676,-12.3116,14.67,90,99,12.9,SH,2024-09-16 02:50:46
36,puerto natales,-51.7236,-72.4875,5.17,81,96,5.27,CL,2024-09-16 02:50:47
37,tinajo,29.0788,-13.7081,21.49,68,0,3.6,ES,2024-09-16 02:50:48
38,saint-francois,46.4154,3.9054,8.71,88,0,0.0,FR,2024-09-16 02:50:49
39,anadyr,64.75,177.4833,9.28,66,20,3.0,RU,2024-09-16 02:50:50
40,zhanaozen,43.3,52.8,16.47,45,0,4.53,KZ,2024-09-16 02:50:52
41,fada,7.25,4.0667,22.8,99,100,1.24,NG,2024-09-16 02:50:53
42,badger,64.8,-147.5333,11.14,83,75,2.57,US,2024-09-16 02:50:54
43,heihe,50.2441,127.4902,17.32,35,100,7.76,CN,2024-09-16 02:50:55
44,papatowai,-46.5619,169.4708,9.37,58,100,3.1,NZ,2024-09-16 02:50:56
45,kingston,17.997,-76.7936,30.53,70,20,3.6,JM,2024-09-16 02:50:57
46,st. john's,47.5649,-52.7093,8.97,86,20,3.09,CA,2024-09-16 02:50:58
47,mossendjo,-2.9506,12.7261,20.84,95,67,0.98,CG,2024-09-16 02:50:59
48,luganville,-15.5333,167.1667,25.83,87,100,3.25,VU,2024-09-16 02:50:56
49,blackmans bay,-43.0167,147.3167,12.63,58,82,2.24,AU,2024-09-16 02:51:01
50,gadzhiyevo,69.2551,33.3362,9.67,98,100,1.51,RU,2024-09-16 02:51:02
51,sitka,57.0531,-135.33,13.94,94,100,3.6,US,2024-09-16 02:51:03
52,yellowknife,62.456,-114.3525,11.34,89,40,5.14,CA,2024-09-16 02:51:05
53,qamdo,31.1667,97.2333,13.67,58,53,2.37,CN,2024-09-16 02:51:06
54,port elizabeth,-33.918,25.5701,15.17,93,20,4.63,ZA,2024-09-16 02:51:07
55,raja,8.4596,25.678,20.32,97,16,1.8,SS,2024-09-16 02:51:08
56,carnarvon,-24.8667,113.6333,25.81,28,0,8.37,AU,2024-09-16 02:50:27
57,meiganga,6.5167,14.3,18.32,92,100,0.61,CM,2024-09-16 02:51:10
58,bela vista,-22.1089,-56.5211,16.73,98,73,1.7,BR,2024-09-16 02:51:11
59,stanley,54.868,-1.6985,7.93,95,69,1.54,GB,2024-09-16 02:51:12
60,alofi,-19.0595,-169.9187,26.94,74,38,4.63,NU,2024-09-16 02:51:13
61,cabo san lucas,22.8909,-109.9124,26.95,84,20,8.05,MX,2024-09-16 02:46:22
62,iqaluit,63.7506,-68.5145,3.85,86,75,8.23,CA,2024-09-16 02:51:16
63,bandar-e lengeh,26.5579,54.8807,34.06,84,0,5.14,IR,2024-09-16 02:51:17
64,fougamou,-1.2154,10.5838,22.81,98,80,0.72,GA,2024-09-16 02:51:18
65,kodiak,57.79,-152.4072,16.73,42,100,4.12,US,2024-09-16 02:51:19
66,arraial do cabo,-22.9661,-42.0278,21.55,93,2,5.29,BR,2024-09-16 02:51:20
67,turbat,26.0023,63.044,26.02,80,62,1.98,PK,2024-09-16 02:51:21
68,tchintabaraden,15.8969,5.7985,30.55,56,12,5.01,NE,2024-09-16 02:51:22
69,iskateley,67.6803,53.1512,14.26,75,99,3.17,RU,2024-09-16 02:51:23
70,balabac,7.9868,117.0645,28.88,77,100,9.09,PH,2024-09-16 02:51:24
71,whitehorse,60.7161,-135.0538,15.43,47,40,9.26,CA,2024-09-16 02:48:55
72,olonkinbyen,70.9221,-8.7187,2.62,96,100,10.75,SJ,2024-09-16 02:51:26
73,ushuaia,-54.8,-68.3,3.81,60,0,2.06,AR,2024-09-16 02:49:38
74,lensk,60.7253,114.9278,4.24,77,100,3.88,RU,2024-09-16 02:51:29
75,san patricio,28.017,-97.5169,27.97,79,100,1.22,US,2024-09-16 02:51:31
76,togur,58.3631,82.8265,6.46,63,11,4.03,RU,2024-09-16 02:51:32
77,oodweyne,9.4092,45.064,23.11,45,31,8.28,SO,2024-09-16 02:51:33
78,saint-philippe,-21.3585,55.7679,19.7,70,48,6.28,RE,2024-09-16 02:51:34
79,santo antonio,-6.3106,-35.4789,20.77,88,0,3.8,BR,2024-09-16 02:51:35
80,timimoun,29.2639,0.231,29.21,37,36,7.72,DZ,2024-09-16 02:51:36
81,fale old settlement,-9.3852,-171.2468,28.25,77,100,4.88,TK,2024-09-16 02:51:37
82,khabez,44.0434,41.772,10.81,84,33,2.13,RU,2024-09-16 02:51:38
83,susuman,62.7833,148.1667,2.89,58,100,3.1,RU,2024-09-16 02:51:40
84,mejit,10.2753,170.8646,28.2,75,100,3.16,MH,2024-09-16 02:51:41
85,zunyi,27.6867,106.9072,22.6,80,100,1.58,CN,2024-09-16 02:51:42
86,constantia,44.1833,28.65,11.5,93,64,6.31,RO,2024-09-16 02:51:43
87,hawaiian paradise park,19.5933,-154.9731,24.94,92,98,0.45,US,2024-09-16 02:51:44
88,rongelap,11.1635,166.8941,28.79,74,100,5.37,MH,2024-09-16 02:51:45
89,spearfish,44.4908,-103.8594,19.9,79,20,2.57,US,2024-09-16 02:51:46
90,birjand,32.8663,59.2211,15.26,29,0,2.06,IR,2024-09-16 02:51:47
91,kavieng,-2.5744,150.7967,29.34,71,71,4.09,PG,2024-09-16 02:51:48
92,walvis bay,-22.9575,14.5053,11.17,89,14,6.33,NA,2024-09-16 02:51:44
93,whakatane,-37.9585,176.9854,15.28,80,100,2.68,NZ,2024-09-16 02:51:50
94,west island,-12.1568,96.8225,28.99,70,20,5.14,CC,2024-09-16 02:51:52
95,touros,-5.1989,-35.4608,25.05,76,5,7.32,BR,2024-09-16 02:51:53
96,arkhangel'sk,64.5401,40.5433,14.06,77,40,2.0,RU,2024-09-16 02:51:54
97,cardenas,23.0375,-81.2047,26.42,80,86,2.06,CU,2024-09-16 02:51:55
98,bethel,41.3712,-73.414,16.63,80,0,0.0,US,2024-09-16 02:51:56
99,kiunga,-6.1219,141.2906,24.61,96,100,1.49,PG,2024-09-16 02:51:57
100,sept-iles,50.2001,-66.3821,12.25,86,40,1.03,CA,2024-09-16 02:51:58
101,akrehamn,59.2667,5.1833,11.14,93,75,2.06,NO,2024-09-16 02:51:59
102,hamilton,39.1834,-84.5333,23.33,53,0,2.5,US,2024-09-16 02:47:58
103,lashio,22.9333,97.75,24.94,76,95,0.57,MM,2024-09-16 02:52:01
104,chela,34.069,104.4619,16.07,89,96,2.37,CN,2024-09-16 02:52:02
105,ust-nera,64.5667,143.2,5.2,60,83,1.34,RU,2024-09-16 02:50:43
106,karamay,45.6004,84.8661,18.0,32,0,2.32,CN,2024-09-16 02:52:05
107,afaahiti,-17.75,-149.2833,24.41,81,58,4.02,PF,2024-09-16 02:52:06
108,kousa,25.9141,32.7636,29.05,42,0,2.62,EG,2024-09-16 02:52:07
109,avarua,-21.2078,-159.775,25.03,65,21,7.72,CK,2024-09-16 02:51:16
110,huadian,42.9633,126.7478,17.95,76,100,1.14,CN,2024-09-16 02:52:10
111,east london,-33.0153,27.9116,16.64,76,96,5.06,ZA,2024-09-16 02:52:11
112,colonia,50.9333,6.95,16.08,84,100,2.69,DE,2024-09-16 02:52:12
113,midland,31.9974,-102.0779,28.14,42,0,3.6,US,2024-09-16 02:52:13
114,vernon,50.2581,-119.2691,16.74,59,0,0.51,CA,2024-09-16 02:52:14
115,choyr,46.3611,108.3611,12.7,42,0,1.66,MN,2024-09-16 02:52:16
116,puerto deseado,-47.7503,-65.8938,8.35,60,48,10.42,AR,2024-09-16 02:52:17
117,kerema,-7.9631,145.7785,27.39,81,90,3.53,PG,2024-09-16 02:52:18
118,lionel town,17.8101,-77.2406,27.38,88,99,2.48,JM,2024-09-16 02:52:19
119,es castell,39.8795,4.2854,18.38,72,0,4.63,ES,2024-09-16 02:52:20
120,hadibu,12.65,54.0333,25.16,80,48,7.86,YE,2024-09-16 02:52:21
121,black point,-34.6187,137.8972,12.02,64,0,4.51,AU,2024-09-16 02:52:22
122,haukipudas,65.1765,25.3523,7.03,89,0,3.54,FI,2024-09-16 02:52:23
123,north bend,43.4065,-124.2243,15.95,77,20,8.23,US,2024-09-16 02:52:24
124,mildura,-34.2,142.15,14.48,46,0,5.55,AU,2024-09-16 02:52:25
125,bredasdorp,-34.5322,20.0403,10.83,70,78,1.85,ZA,2024-09-16 02:51:37
126,jambusar,22.05,72.8,27.76,68,5,2.8,IN,2024-09-16 02:52:27
127,fairmont,39.4851,-80.1426,19.55,70,0,1.69,US,2024-09-16 02:52:29
128,burang,30.25,81.1667,8.21,63,15,1.96,CN,2024-09-16 02:52:30
129,pariaman,-0.619,100.12,27.03,76,68,2.67,ID,2024-09-16 02:52:31
130,manaure,11.7751,-72.4445,31.15,68,4,5.01,CO,2024-09-16 02:52:32
131,jwaneng,-24.6004,24.7303,18.33,8,100,2.91,BW,2024-09-16 02:52:33
132,sayansk,54.1088,102.1648,3.53,63,100,2.6,RU,2024-09-16 02:52:34
133,saint-joseph,-21.3667,55.6167,18.21,68,38,5.49,RE,2024-09-16 02:52:35
134,flying fish cove,-10.4217,105.6791,27.82,74,40,5.14,CX,2024-09-16 02:52:36
135,arteche,12.2645,125.4048,29.16,73,100,4.0,PH,2024-09-16 02:52:37
136,fada n'gourma,12.0622,0.3578,23.33,88,87,2.41,BF,2024-09-16 02:52:38
137,crane,31.3974,-102.3501,24.72,51,0,6.78,US,2024-09-16 02:52:39
138,puerto ayora,-0.7393,-90.3518,20.86,95,78,2.24,EC,2024-09-16 02:52:40
139,petropavlovsk-kamchatsky,53.0452,158.6483,13.33,41,40,6.0,RU,2024-09-16 02:52:42
140,sterling,39.0062,-77.4286,21.36,67,75,2.06,US,2024-09-16 02:52:43
141,rosa zarate,0.3333,-79.4667,22.78,89,56,0.99,EC,2024-09-16 02:52:44
142,beolgyo,34.8449,127.3429,27.52,80,97,5.29,KR,2024-09-16 02:52:45
143,sisimiut,66.9395,-53.6735,2.5,88,93,2.95,GL,2024-09-16 02:52:46
144,hengshui,37.7322,115.7011,24.64,47,0,1.54,CN,2024-09-16 02:52:47
145,lodwar,3.1191,35.5973,25.98,49,82,7.37,KE,2024-09-16 02:52:48
146,kerikeri,-35.2268,173.9474,12.17,89,100,0.89,NZ,2024-09-16 02:52:49
147,mindelo,16.8901,-24.9804,25.75,73,20,2.06,CV,2024-09-16 02:52:54
148,santa cruz,-17.8,-63.1667,16.7,88,40,1.03,BO,2024-09-16 02:50:45
149,lake park,26.8003,-80.0664,27.79,93,40,0.0,US,2024-09-16 02:52:56
150,fisterra,42.9049,-9.2629,18.56,54,46,7.38,ES,2024-09-16 02:52:57
151,invercargill,-46.4,168.35,10.57,61,100,2.68,NZ,2024-09-16 02:52:58
152,priob'ye,62.5206,65.5964,9.68,62,8,3.16,RU,2024-09-16 02:52:59
153,el fasher,13.6279,25.3494,25.09,66,100,5.37,SD,2024-09-16 02:53:00
154,truth or consequences,33.1284,-107.2528,24.95,68,100,0.0,US,2024-09-16 02:53:02
155,lovington,32.944,-103.3485,25.65,41,0,0.45,US,2024-09-16 02:53:03
156,georgetown,5.4112,100.3354,27.96,88,20,2.68,MY,2024-09-16 02:53:04
157,kailua-kona,19.6406,-155.9956,30.31,68,20,3.09,US,2024-09-16 02:53:06
158,kuvandyk,51.4781,57.3552,14.21,80,79,5.99,RU,2024-09-16 02:53:07
159,flekkefjord,58.2971,6.6607,10.1,97,100,0.76,NO,2024-09-16 02:53:08
160,palembang,-2.9167,104.7458,31.44,50,60,3.06,ID,2024-09-16 02:53:09
161,san felipe,10.3399,-68.7425,23.76,82,100,1.78,VE,2024-09-16 02:53:10
162,qaqortoq,60.7167,-46.0333,4.72,92,99,1.47,GL,2024-09-16 02:53:11
163,uturoa,-16.7333,-151.4333,26.13,78,40,3.36,PF,2024-09-16 02:53:12
164,roxas,11.5853,122.7511,26.01,93,100,4.85,PH,2024-09-16 02:53:13
165,vadso,70.0744,29.7487,10.09,93,100,3.09,NO,2024-09-16 02:53:14
166,klyuchi,52.2667,79.1667,5.83,58,0,7.07,RU,2024-09-16 02:53:15
167,visby,57.6409,18.296,16.13,82,100,3.6,SE,2024-09-16 02:53:16
168,mangai,-4.05,19.5333,22.23,88,62,0.99,CD,2024-09-16 02:53:19
169,aceuchal,38.6712,-6.4963,22.53,40,11,1.3,ES,2024-09-16 02:53:20
170,jamestown,42.097,-79.2353,19.8,85,0,2.06,US,2024-09-16 02:52:39
171,tual,-5.6667,132.75,26.68,84,97,6.33,ID,2024-09-16 02:53:22
172,barcelos,41.5388,-8.6151,18.16,27,0,3.18,PT,2024-09-16 02:53:23
173,kurchatov,51.6601,35.6521,13.79,43,0,3.74,RU,2024-09-16 02:53:24
174,kapuskasing,49.4169,-82.4331,22.05,78,20,3.09,CA,2024-09-16 02:53:25
175,nouadhibou,20.931,-17.0347,20.99,88,4,5.66,MR,2024-09-16 02:53:26
176,kargopol',61.5071,38.9456,12.33,85,72,2.7,RU,2024-09-16 02:53:27
177,hermanus,-34.4187,19.2345,11.0,66,98,2.02,ZA,2024-09-16 02:53:28
178,port alfred,-33.5906,26.891,11.77,95,9,0.45,ZA,2024-09-16 02:53:30
179,behshahr,36.6923,53.5526,21.15,70,47,1.54,IR,2024-09-16 02:53:31
180,malango,-2.9627,119.9001,28.57,45,56,2.13,ID,2024-09-16 02:53:32
181,oranjemund,-28.55,16.4333,11.22,91,1,5.0,NA,2024-09-16 02:53:33
182,mbabane,-26.3167,31.1333,13.92,90,94,0.48,SZ,2024-09-16 02:53:34
183,dhidhdhoo,6.8833,73.1,27.76,78,10,4.91,MV,2024-09-16 02:53:35
184,champerico,14.3,-91.9167,28.58,79,100,2.86,GT,2024-09-16 02:53:36
185,buka,40.8108,69.1986,21.29,23,91,1.65,UZ,2024-09-16 02:53:37
186,punta arenas,-53.15,-70.9167,5.06,81,20,9.26,CL,2024-09-16 02:53:38
187,tongzhou,39.9053,116.5994,25.06,56,0,1.0,CN,2024-09-16 02:53:39
188,port pirie,-33.1833,138.0167,19.86,23,0,2.58,AU,2024-09-16 02:53:40
189,tuba city,36.135,-111.2399,25.21,25,0,2.68,US,2024-09-16 02:53:41
190,masterton,-40.9597,175.6575,11.27,83,100,2.59,NZ,2024-09-16 02:53:43
191,coquimbo,-29.9533,-71.3436,11.85,93,0,1.54,CL,2024-09-16 02:53:44
192,fuerte olimpo,-21.0415,-57.8738,18.17,91,91,2.01,PY,2024-09-16 02:53:45
193,ghanzi,-21.5667,21.7833,19.92,14,96,3.15,BW,2024-09-16 02:53:46
194,khovd,48.0056,91.6419,14.08,18,0,2.05,MN,2024-09-16 02:53:47
195,melekeok village,7.4957,134.6367,31.31,74,100,4.63,PW,2024-09-16 02:53:48
196,tazovsky,67.4667,78.7,9.36,70,95,6.55,RU,2024-09-16 02:53:50
197,tiksi,71.6872,128.8694,1.49,84,100,12.12,RU,2024-09-16 02:53:53
198,tanjung selor,2.8372,117.3642,32.22,49,83,2.49,ID,2024-09-16 02:53:54
199,nova vicosa,-17.8919,-39.3719,22.63,86,100,3.57,BR,2024-09-16 02:53:55
200,belaya kholunitsa,58.84,50.8528,12.52,91,75,1.98,RU,2024-09-16 02:53:56
201,salalah,17.0151,54.0924,26.05,78,75,1.54,OM,2024-09-16 02:53:57
202,ochakiv,46.6128,31.5498,21.75,66,100,8.3,UA,2024-09-16 02:53:58
203,tolanaro,-25.0319,46.9987,18.04,94,0,3.09,MG,2024-09-16 02:53:59
204,margaret river,-33.95,115.0667,17.46,52,0,5.38,AU,2024-09-16 02:54:00
205,rabaul,-4.1967,152.1721,28.7,73,32,3.09,PG,2024-09-16 02:54:01
206,yeniseysk,58.4497,92.1703,5.35,63,69,2.2,RU,2024-09-16 02:54:02
207,ulladulla,-35.35,150.4667,13.39,38,2,3.05,AU,2024-09-16 02:54:04
208,edd,13.9297,41.6925,32.36,62,100,1.95,ER,2024-09-16 02:54:05
209,nar'yan-mar,67.6713,53.087,14.22,75,98,3.2,RU,2024-09-16 02:54:07
210,terbanggi besar,-4.8667,105.2333,30.98,53,3,4.02,ID,2024-09-16 02:54:08
211,lorengau,-2.0226,147.2712,28.89,77,67,4.03,PG,2024-09-16 02:54:09
212,viqueque,-8.8673,126.3658,31.87,44,63,4.44,TL,2024-09-16 02:54:10
213,uthal,25.8072,66.6219,26.79,78,21,1.31,PK,2024-09-16 02:54:11
214,emerald,-23.5333,148.1667,25.19,31,1,5.34,AU,2024-09-16 02:54:12
215,nabire,-3.3667,135.4833,31.86,62,87,2.32,ID,2024-09-16 02:54:13
216,nishinoomote,30.7333,131.0,30.31,84,75,5.14,JP,2024-09-16 02:54:15
217,iquique,-20.2208,-70.1431,15.43,83,64,1.3,CL,2024-09-16 02:54:16
218,nyons,44.3333,5.1667,5.92,78,49,4.01,FR,2024-09-16 02:54:17
219,lubao,14.9167,120.55,27.64,84,100,1.55,PH,2024-09-16 02:54:18
220,selfoss,63.9331,-20.9971,1.69,67,100,3.5,IS,2024-09-16 02:54:19
221,sullivan,36.5168,-82.5332,20.4,78,0,0.0,US,2024-09-16 02:54:20
222,toliara,-23.35,43.6667,21.35,73,5,2.67,MG,2024-09-16 02:54:21
223,thompson,55.7435,-97.8558,15.09,63,20,1.54,CA,2024-09-16 02:54:22
224,palangkaraya,-2.2,113.8333,33.26,43,96,1.46,ID,2024-09-16 02:54:23
225,alotau,-10.3069,150.4462,25.28,94,100,2.68,PG,2024-09-16 02:54:24
226,talnakh,69.4865,88.3972,4.24,76,100,4.54,RU,2024-09-16 02:54:25
227,brookings,44.3114,-96.7984,22.88,78,0,3.6,US,2024-09-16 02:54:27
228,dakoro,14.5106,6.765,29.0,61,10,4.23,NE,2024-09-16 02:54:29
229,zabaykal'sk,49.6333,117.3167,15.01,43,5,10.45,RU,2024-09-16 02:54:30
230,bokani,9.4333,5.2,23.69,96,80,1.81,NG,2024-09-16 02:54:31
231,horta,38.5333,-28.6333,23.34,80,100,6.26,PT,2024-09-16 02:54:32
232,west end,26.6833,-78.9667,29.02,70,98,0.65,BS,2024-09-16 02:54:33
233,glushkovo,51.3392,34.6328,14.19,43,2,4.64,RU,2024-09-16 02:54:34
234,namibe,-15.1961,12.1522,16.98,89,77,1.6,AO,2024-09-16 02:54:35
235,hailey,43.5196,-114.3153,20.92,32,100,7.72,US,2024-09-16 02:54:36
236,codrington,-38.2667,141.9667,12.11,76,100,7.89,AU,2024-09-16 02:54:38
237,lethem,3.3803,-59.7968,27.84,61,2,1.65,GY,2024-09-16 02:54:39
238,zyryanskoye,56.8306,86.6258,4.7,70,34,3.52,RU,2024-09-16 02:54:40
239,aasiaat,68.7098,-52.8699,-1.7,94,100,1.45,GL,2024-09-16 02:54:41
240,bilibino,68.0546,166.4372,1.23,96,100,2.62,RU,2024-09-16 02:54:42
241,la'ie,21.6477,-157.9253,29.66,75,63,1.79,US,2024-09-16 02:54:43
242,la sarre,48.8002,-79.1996,18.52,70,12,4.35,CA,2024-09-16 02:54:44
243,beyneu,45.3167,55.2,19.68,38,95,6.14,KZ,2024-09-16 02:54:45
244,obo,5.3998,26.4869,20.43,97,97,1.3,CF,2024-09-16 02:54:46
245,nemuro,43.3236,145.575,17.01,68,1,1.48,JP,2024-09-16 02:54:47
246,olyokminsk,60.3736,120.4264,8.03,50,97,4.23,RU,2024-09-16 02:54:48
247,kisangani,0.5167,25.2,21.87,94,100,1.0,CD,2024-09-16 02:54:49
248,muscat,23.6139,58.5922,30.0,72,100,3.14,OM,2024-09-16 02:54:52
249,sinop,41.7711,34.8709,16.29,89,73,1.94,TR,2024-09-16 02:54:53
250,cekerek,40.0731,35.4947,15.1,78,52,2.16,TR,2024-09-16 02:54:54
251,carrizal,10.3499,-66.9863,20.67,93,56,0.51,VE,2024-09-16 02:54:55
252,ilulissat,69.2167,-51.1,-1.61,87,100,2.13,GL,2024-09-16 02:50:41
253,ourinhos,-22.9789,-49.8706,18.21,77,100,3.63,BR,2024-09-16 02:54:57
254,amuntai,-2.4177,115.2494,33.24,40,100,0.74,ID,2024-09-16 02:54:58
255,colby,39.3958,-101.0524,27.22,47,0,7.2,US,2024-09-16 02:54:59
256,ponta delgada,37.7333,-25.6667,22.4,73,75,5.14,PT,2024-09-16 02:55:02
257,venilale,-8.6431,126.378,29.2,42,82,0.63,TL,2024-09-16 02:55:03
258,magadan,59.5667,150.8,9.92,57,37,0.31,RU,2024-09-16 02:55:04
259,corner brook,48.9667,-57.9484,7.03,88,61,2.31,CA,2024-09-16 02:55:05
260,sarupathar,26.1984,93.8094,28.86,76,100,1.39,IN,2024-09-16 02:55:06
261,laguna,38.421,-121.4238,19.08,59,0,5.66,US,2024-09-16 02:55:07
262,malvan,16.0667,73.4667,26.63,76,89,0.19,IN,2024-09-16 02:55:08
263,villa gesell,-37.2639,-56.973,9.6,79,13,2.65,AR,2024-09-16 02:55:09
264,port mathurin,-19.6833,63.4167,20.75,71,50,11.36,MU,2024-09-16 02:50:46
265,sibiti,-3.6819,13.3499,20.96,89,27,1.35,CG,2024-09-16 02:53:09
266,douz,33.4663,9.0203,22.25,43,10,3.22,TN,2024-09-16 02:55:15
267,al jawf,29.5,38.75,21.26,60,0,4.18,SA,2024-09-16 02:55:16
268,mata-utu,-13.2816,-176.1745,27.44,79,27,4.72,WF,2024-09-16 02:55:17
269,laibin,23.7,109.2667,30.16,65,3,4.08,CN,2024-09-16 02:55:18
270,kadnikov,59.5022,40.338,12.15,87,97,2.1,RU,2024-09-16 02:55:19
271,enewetak,11.3474,162.3373,28.66,80,100,7.36,MH,2024-09-16 02:55:20
272,kolonia town,6.964,158.206,28.06,83,100,0.0,FM,2024-09-16 02:55:21
273,qusmuryn,52.4503,64.6311,11.46,67,31,7.46,KZ,2024-09-16 02:55:22
274,muravlenko,63.7898,74.523,6.78,54,99,5.13,RU,2024-09-16 02:55:24
275,kununurra,-15.7667,128.7333,33.99,29,22,4.63,AU,2024-09-16 02:54:32
276,ofunato,39.0717,141.7167,20.14,75,100,3.76,JP,2024-09-16 02:55:26
277,siwa oasis,29.2041,25.5195,26.44,54,10,4.05,EG,2024-09-16 02:55:27
278,impfondo,1.6381,18.0667,21.4,97,100,0.41,CG,2024-09-16 02:55:28
279,vorgashor,67.5833,63.95,12.97,97,99,4.54,RU,2024-09-16 02:55:29
280,naranjo,10.0987,-84.3782,22.4,96,99,1.19,CR,2024-09-16 02:55:30
281,swakopmund,-22.6833,14.5333,10.88,93,10,4.55,NA,2024-09-16 02:55:31
282,ketchikan,55.3422,-131.6461,12.65,94,100,4.63,US,2024-09-16 02:55:32
283,worthington,40.0931,-83.018,20.94,58,0,1.93,US,2024-09-16 02:55:33
284,jijiga,9.35,42.8,17.93,60,84,6.27,ET,2024-09-16 02:55:34
285,salinopolis,-0.6136,-47.3561,26.47,80,41,5.5,BR,2024-09-16 02:55:36
286,sao vicente,-23.9631,-46.3919,18.88,26,100,1.34,BR,2024-09-16 02:55:37
287,shache,38.4167,77.2406,23.18,27,9,4.6,CN,2024-09-16 02:55:38
288,argo,37.6333,22.7333,16.88,65,0,1.77,GR,2024-09-16 02:55:39
289,swinoujscie,53.9105,14.2471,16.08,77,100,5.14,PL,2024-09-16 02:55:40
290,novodvinsk,64.4165,40.8122,13.86,77,100,3.08,RU,2024-09-16 02:55:41
291,la passe,45.5549,-0.8967,11.93,65,55,4.26,FR,2024-09-16 02:55:42
292,anna regina,7.2644,-58.5077,27.58,79,1,3.35,GY,2024-09-16 02:53:36
293,akureyri,65.6835,-18.0878,-2.04,100,20,1.54,IS,2024-09-16 02:55:44
294,matane,48.8286,-67.522,16.39,83,100,3.33,CA,2024-09-16 02:55:45
295,menongue,-14.6585,17.691,17.93,28,24,2.15,AO,2024-09-16 02:55:46
296,general roca,-39.0333,-67.5833,13.74,22,4,2.3,AR,2024-09-16 02:55:47
297,riviere-du-loup,47.8304,-69.5342,20.15,77,99,2.57,CA,2024-09-16 02:55:49
298,nogliki,51.8333,143.1667,18.7,49,42,6.4,RU,2024-09-16 02:55:51
299,mar del plata,-38.0023,-57.5575,10.49,75,0,0.45,AR,2024-09-16 02:55:52
300,longyearbyen,78.2186,15.6401,3.91,100,75,3.09,SJ,2024-09-16 02:55:53
301,verkhneyarkeyevo,55.4505,54.3145,13.5,76,0,1.95,RU,2024-09-16 02:55:54
302,palmer,42.1584,-72.3287,15.84,70,0,1.14,US,2024-09-16 02:55:55
303,kavaratti,10.5669,72.642,26.69,85,69,5.17,IN,2024-09-16 02:55:56
304,cannonvale,-20.2833,148.7,23.66,63,52,8.84,AU,2024-09-16 02:55:57
305,ciudad lazaro cardenas,17.9583,-102.2,27.93,83,100,0.68,MX,2024-09-16 02:55:58
306,khilok,51.3674,110.4676,9.49,63,57,4.54,RU,2024-09-16 02:56:00
307,san rafael,-34.6177,-68.3301,14.99,26,0,1.92,AR,2024-09-16 02:56:01
308,morozovsk,48.3539,41.8261,15.59,48,0,4.94,RU,2024-09-16 02:56:02
309,ahiri,19.4,80.0167,25.08,83,100,2.73,IN,2024-09-16 02:56:03
310,penzance,50.1186,-5.5371,15.38,95,100,2.73,GB,2024-09-16 02:56:05
311,weno,7.4515,151.8468,29.97,84,100,3.6,FM,2024-09-16 02:56:02
312,fort abbas,29.1925,72.8536,32.27,39,0,5.72,PK,2024-09-16 02:56:07
313,adrar,20.5022,-10.0711,32.6,41,97,2.55,MR,2024-09-16 02:56:08
314,myitkyina,25.3833,97.4,26.2,81,100,0.49,MM,2024-09-16 02:56:09
315,port sudan,19.6175,37.2164,30.1,79,39,3.6,SD,2024-09-16 02:56:12
316,port hedland,-20.3167,118.5667,31.03,11,1,9.77,AU,2024-09-16 02:56:13
317,wellington,-41.2866,174.7756,11.81,88,100,9.26,NZ,2024-09-16 02:54:27
318,conneaut,41.9476,-80.5542,18.39,77,0,4.41,US,2024-09-16 02:56:15
319,tommot,58.9564,126.2925,4.37,93,100,3.71,RU,2024-09-16 02:56:17
320,remire-montjoly,4.9167,-52.2667,27.02,89,0,1.03,GF,2024-09-16 02:56:18
321,port macquarie,-31.4333,152.9167,21.71,40,2,2.24,AU,2024-09-16 02:56:19
322,san,13.3034,-4.8956,24.59,85,100,1.99,ML,2024-09-16 02:56:20
323,lianran,24.9227,102.485,16.3,80,100,2.33,CN,2024-09-16 02:56:21
324,pansemal,21.65,74.7,24.39,85,17,3.27,IN,2024-09-16 02:56:22
325,bahia blanca,-38.7196,-62.2724,10.69,35,2,3.76,AR,2024-09-16 02:56:23
326,yaren,-0.5472,166.916,28.41,70,9,3.38,NR,2024-09-16 02:56:25
327,caninde,-4.3589,-39.3117,23.89,68,7,0.68,BR,2024-09-16 02:56:26
328,colonia general alfredo stroessner,-25.3667,-55.7,14.23,97,8,1.12,PY,2024-09-16 02:56:27
329,casilda,-33.0442,-61.1681,14.32,46,24,3.55,AR,2024-09-16 02:56:28
330,san carlos de bariloche,-41.1456,-71.3082,4.86,60,0,6.69,AR,2024-09-16 02:56:29
331,bodaybo,57.8506,114.1933,7.03,78,100,2.39,RU,2024-09-16 02:56:30
332,aoulef,26.9667,1.0833,32.32,22,0,3.41,DZ,2024-09-16 02:56:31
333,pauini,-7.7136,-66.9764,26.4,31,13,0.89,BR,2024-09-16 02:56:32
334,amos,48.5669,-78.1162,18.88,69,26,3.92,CA,2024-09-16 02:56:33
335,antalaha,-14.9003,50.2788,19.6,74,21,2.88,MG,2024-09-16 02:56:34
336,polyarnyye zori,67.3661,32.4981,10.37,99,100,0.97,RU,2024-09-16 02:56:35
337,sandnessjoen,66.0217,12.6316,13.4,70,100,3.48,NO,2024-09-16 02:56:37
338,chivhu,-19.0211,30.8922,16.75,37,0,3.3,ZW,2024-09-16 02:56:38
339,terrace heights,46.6062,-120.4398,19.27,60,100,1.34,US,2024-09-16 02:56:39
340,kaohsiung,22.6163,120.3133,32.97,74,75,1.79,TW,2024-09-16 02:54:29
341,bel ombre,-4.6167,55.4167,26.91,83,40,7.2,SC,2024-09-16 02:56:41
342,bac lieu,9.285,105.7244,28.94,73,100,8.29,VN,2024-09-16 02:56:42
343,warrnambool,-38.3833,142.4833,12.02,81,100,8.47,AU,2024-09-16 02:56:43
344,kodinsk,58.6881,99.1844,1.35,88,97,2.84,RU,2024-09-16 02:56:45
345,mil'kovo,55.6078,37.7956,16.46,51,10,2.21,RU,2024-09-16 02:54:37
346,paka,4.6374,103.4368,28.96,79,20,1.54,MY,2024-09-16 02:56:48
347,hithadhoo,-0.6,73.0833,28.64,76,100,4.57,MV,2024-09-16 02:56:49
348,saipan,15.1355,145.701,27.39,89,100,12.35,MP,2024-09-16 02:56:50
349,houlton,46.1262,-67.8403,14.23,82,0,2.06,US,2024-09-16 02:56:51
350,brasileia,-11.0161,-68.7481,25.76,48,20,2.18,BR,2024-09-16 02:56:52
351,bam,29.106,58.357,27.51,20,12,1.35,IR,2024-09-16 02:56:53
352,naze,28.3667,129.4833,29.51,83,11,6.04,JP,2024-09-16 02:53:23
353,ola,59.5833,151.2833,10.82,54,56,4.91,RU,2024-09-16 02:56:55
354,njombe,-9.3333,34.7667,7.75,91,4,0.96,TZ,2024-09-16 02:56:56
355,ghat,24.9647,10.1728,29.72,36,21,1.39,LY,2024-09-16 02:56:57
356,bamboo flat,11.7,92.7167,30.05,79,40,5.14,IN,2024-09-16 02:56:58
357,chonchi,-42.6128,-73.8092,3.42,96,10,1.11,CL,2024-09-16 02:57:00
358,villa emilio carranza,19.9667,-96.6,27.98,89,100,3.99,MX,2024-09-16 02:57:01
359,corbelia,-24.7989,-53.3067,13.38,96,100,4.25,BR,2024-09-16 02:57:02
360,kismayo,-0.3582,42.5454,24.61,83,25,6.38,SO,2024-09-16 02:57:03
361,kwang binh,17.4833,106.6,30.34,68,25,3.02,VN,2024-09-16 02:57:04
362,sarmiento,-45.5882,-69.07,8.49,55,45,11.59,AR,2024-09-16 02:57:05
363,minas de marcona,-15.2119,-75.1103,10.75,87,59,4.56,PE,2024-09-16 02:57:06
364,choma,-16.8065,26.9531,18.31,30,0,1.89,ZM,2024-09-16 02:57:07
365,vilyuchinsk,52.9306,158.4028,14.15,62,15,8.42,RU,2024-09-16 02:57:08
366,gaspe,48.8334,-64.4819,11.12,93,40,1.54,CA,2024-09-16 02:55:41
367,nadi,-17.8,177.4167,29.0,65,40,6.69,FJ,2024-09-16 02:57:10
368,acarau,-2.8856,-40.12,25.62,79,45,7.85,BR,2024-09-16 02:55:05
369,tutong,4.8,114.65,30.1,65,85,4.0,BN,2024-09-16 02:57:13
370,shingu,33.7333,135.9833,30.04,67,3,2.64,JP,2024-09-16 02:56:28
371,tucuma,-0.1833,-50.05,26.02,83,6,4.28,BR,2024-09-16 02:57:15
372,embi,48.8264,58.1442,15.73,53,63,5.97,KZ,2024-09-16 02:57:16
373,ganserndorf,48.3392,16.7202,11.68,77,100,7.75,AT,2024-09-16 02:57:17
374,mount isa,-20.7333,139.5,29.87,20,0,7.2,AU,2024-09-16 02:57:18
375,kyabe,9.4515,18.9449,20.44,98,100,1.63,TD,2024-09-16 02:57:19
376,nieuw amsterdam,5.8833,-55.0833,25.56,86,10,4.19,SR,2024-09-16 02:57:20
377,cangucu,-31.395,-52.6756,8.34,94,0,1.42,BR,2024-09-16 02:57:21
378,rio grande,-32.035,-52.0986,14.14,81,6,3.06,BR,2024-09-16 02:53:10
379,tanjung pandan,-2.75,107.65,31.88,51,87,3.99,ID,2024-09-16 02:57:23
380,uzhur,55.3036,89.8339,3.42,68,94,2.44,RU,2024-09-16 02:57:25
381,brisas de zicatela,15.8369,-97.0419,28.19,82,100,1.76,MX,2024-09-16 02:57:26
382,gupitan,7.7758,125.6406,32.07,58,95,5.11,PH,2024-09-16 02:57:27
383,formosa do rio preto,-11.0483,-45.1931,23.66,38,2,1.44,BR,2024-09-16 02:57:28
384,ust'-ilimsk,58.0006,102.6619,1.63,94,100,2.86,RU,2024-09-16 02:57:29
385,callao,-12.0667,-77.15,17.07,82,100,2.06,PE,2024-09-16 02:57:30
386,jutai,-5.1833,-68.9,27.73,55,55,1.33,BR,2024-09-16 02:57:31
387,crixas,-14.5489,-49.9692,27.03,28,4,1.58,BR,2024-09-16 02:57:32
388,libenge,3.65,18.6333,21.49,97,100,0.44,CD,2024-09-16 02:57:33
389,nova sintra,14.8667,-24.7167,26.36,80,92,4.75,CV,2024-09-16 02:57:34
390,yuzhno-kurilsk,44.0306,145.8556,18.3,57,1,5.71,RU,2024-09-16 02:57:17
391,tura,25.5198,90.2201,26.34,81,100,1.24,IN,2024-09-16 02:57:25
392,kasongo-lunda,-6.4667,16.8167,24.55,78,13,1.54,CD,2024-09-16 02:57:38
393,hami,42.8,93.45,22.76,18,2,1.28,CN,2024-09-16 02:57:39
394,jamaame,0.0697,42.745,23.88,85,44,4.17,SO,2024-09-16 02:57:40
395,guarapari,-20.6667,-40.4975,20.44,94,3,3.41,BR,2024-09-16 02:57:41
396,alaghsas,17.0187,8.0168,30.61,46,97,3.9,NE,2024-09-16 02:57:42
397,punta del este,-34.9667,-54.95,11.6,75,0,2.06,UY,2024-09-16 02:57:43
398,belyy yar,53.6039,91.3903,4.94,70,0,5.0,RU,2024-09-16 02:57:44
399,sivasli,38.4994,29.6836,11.82,68,0,0.71,TR,2024-09-16 02:57:45
400,noumea,-22.2763,166.4572,20.86,58,93,5.7,NC,2024-09-16 02:57:47
401,plettenberg bay,-34.0527,23.3716,13.91,84,97,3.12,ZA,2024-09-16 02:57:49
402,hirara,24.8,125.2833,31.92,84,75,6.69,JP,2024-09-16 02:57:50
403,urangan,-25.3,152.9,19.72,58,26,10.39,AU,2024-09-16 02:57:51
404,les cayes,18.2,-73.75,27.63,84,100,2.31,HT,2024-09-16 02:57:52
405,baiyin,36.5583,104.2081,14.56,82,100,0.59,CN,2024-09-16 02:57:53
406,pisco,-13.7,-76.2167,17.03,82,40,2.06,PE,2024-09-16 02:56:49
407,margate,51.3813,1.3862,14.27,90,100,3.9,GB,2024-09-16 02:57:55
408,simav,39.0882,28.9777,11.26,82,0,0.22,TR,2024-09-16 02:57:56
409,itamaraju,-17.0392,-39.5311,19.62,98,69,1.18,BR,2024-09-16 02:57:57
410,viedma,-40.8135,-62.9967,8.19,32,11,5.24,AR,2024-09-16 02:57:58
411,madimba,-10.4,40.3333,22.59,86,21,1.49,TZ,2024-09-16 02:57:59
412,revda,56.801,59.9303,10.56,94,22,1.36,RU,2024-09-16 02:58:00
413,katsuren-haebaru,26.3369,127.8719,32.43,83,20,9.26,JP,2024-09-16 02:58:02
414,jhalawar,24.6,76.15,25.43,77,43,3.22,IN,2024-09-16 02:58:03
415,chadan,51.2833,91.5833,10.41,64,77,2.42,RU,2024-09-16 02:58:04
416,astrakhan,46.3497,48.0408,14.93,55,0,5.0,RU,2024-09-16 02:58:05
417,santo antonio do ica,-3.1022,-67.9397,26.21,71,22,1.47,BR,2024-09-16 02:58:06
418,moussoro,13.6408,16.4901,25.85,66,100,5.41,TD,2024-09-16 02:58:07
419,mount gambier,-37.8333,140.7667,12.29,61,99,4.49,AU,2024-09-16 02:58:08
420,udachny,66.4167,112.4,2.41,73,100,5.09,RU,2024-09-16 02:58:09
421,jayapura,-2.5333,140.7,32.66,62,42,2.48,ID,2024-09-16 02:57:12
422,egilsstadir,65.2653,-14.3948,-0.05,80,18,3.6,IS,2024-09-16 02:58:11
423,smirnovo,54.5125,69.4222,7.87,71,0,4.38,KZ,2024-09-16 02:58:12
424,usinsk,65.9939,57.5281,13.37,93,95,4.27,RU,2024-09-16 02:58:14
425,magistral'nyy,56.1725,107.4458,5.72,53,100,4.35,RU,2024-09-16 02:58:15
426,boa vista,2.8197,-60.6733,27.99,78,0,2.06,BR,2024-09-16 02:58:16
427,pacific grove,36.6177,-121.9166,16.35,91,40,4.63,US,2024-09-16 02:58:17
428,marka,1.7159,44.7717,25.18,82,100,7.01,SO,2024-09-16 02:58:18
429,isiro,2.7739,27.616,18.98,99,100,0.09,CD,2024-09-16 02:58:19
430,madang,-5.2246,145.7966,25.35,92,100,0.72,PG,2024-09-16 02:58:20
431,paros,37.0833,25.15,22.39,60,0,2.57,GR,2024-09-16 02:58:22
432,lamar,33.6668,-95.5836,23.95,83,0,2.06,US,2024-09-16 02:58:23
433,las lomitas,-24.7096,-60.593,16.68,50,0,2.02,AR,2024-09-16 02:58:24
434,strezhevoy,60.7333,77.5889,6.21,60,75,2.12,RU,2024-09-16 02:58:27
435,borovskoy,53.8,64.15,8.84,74,7,5.6,KZ,2024-09-16 02:58:28
436,karymskoye,51.6167,114.35,15.3,31,0,6.54,RU,2024-09-16 02:58:29
437,perth,-31.9333,115.8333,22.23,45,0,6.69,AU,2024-09-16 02:56:22
438,hastings,50.8552,0.5729,14.88,41,100,3.61,GB,2024-09-16 02:58:31
439,altai,46.3722,96.2583,10.51,13,0,4.87,MN,2024-09-16 02:58:32
440,polyarnyy,69.1989,33.4478,9.65,98,100,1.95,RU,2024-09-16 02:58:33
441,lagoa,39.05,-27.9833,22.05,74,100,8.72,PT,2024-09-16 02:58:34
442,beichengqu,40.4394,113.1536,15.23,89,100,2.2,CN,2024-09-16 02:58:35
443,ceerigaabo,10.6162,47.368,18.01,54,85,6.56,SO,2024-09-16 02:58:36
444,prado,-17.3411,-39.2208,23.3,81,70,4.74,BR,2024-09-16 02:55:36
445,manadhoo,5.7667,73.3833,27.96,76,43,4.57,MV,2024-09-16 02:58:39
446,ancud,-41.8697,-73.8203,6.59,87,1,1.0,CL,2024-09-16 02:58:01
447,harstad,68.799,16.5293,13.12,53,100,9.83,NO,2024-09-16 02:58:41
448,sao gabriel da cachoeira,-0.1303,-67.0892,26.46,73,58,0.32,BR,2024-09-16 02:58:43
449,jinghong,21.991,100.7341,29.85,58,76,0.84,CN,2024-09-16 02:58:44
450,bopolu,7.0667,-10.4875,22.16,99,100,0.74,LR,2024-09-16 02:58:45
451,port lincoln,-34.7333,135.8667,12.93,61,7,5.23,AU,2024-09-16 02:58:46
452,turkmenbasy,40.0222,52.9552,12.43,62,0,0.0,TM,2024-09-16 02:58:48
453,ghormach,35.7306,63.7826,21.38,20,92,2.03,AF,2024-09-16 02:58:49
454,dunedin,-45.8742,170.5036,8.25,72,29,0.53,NZ,2024-09-16 02:58:51
455,gao,16.6362,1.637,29.94,57,5,0.44,ML,2024-09-16 02:58:52
456,rexburg,43.826,-111.7897,17.22,37,41,3.39,US,2024-09-16 02:58:53
457,lerwick,60.1545,-1.1494,10.09,83,51,5.03,GB,2024-09-16 02:58:54
458,saudarkrokur,65.7461,-19.6394,1.38,80,95,2.23,IS,2024-09-16 02:58:55
459,aleysk,52.4926,82.7822,4.52,66,7,5.28,RU,2024-09-16 02:58:56
460,jieshi,22.8134,115.8257,28.83,76,77,4.87,CN,2024-09-16 02:58:57
461,bikenibeu village,1.3673,173.1241,30.98,70,20,3.6,KI,2024-09-16 02:58:59
462,zouerate,22.7187,-12.4521,31.45,25,40,4.5,MR,2024-09-16 02:59:00
463,yasnyy,51.0333,59.8742,13.7,79,57,6.06,RU,2024-09-16 02:59:01
464,ephraim,39.3597,-111.5863,18.76,29,59,2.68,US,2024-09-16 02:59:02
465,badovinci,44.7858,19.3714,10.48,97,100,7.01,RS,2024-09-16 02:59:03
466,yuyao,30.05,121.1494,24.25,93,100,7.91,CN,2024-09-16 02:59:04
467,safi,32.1667,-8.8333,20.37,76,0,1.94,MA,2024-09-16 02:59:05
468,dobrich,43.5667,27.8333,10.16,94,43,5.06,BG,2024-09-16 02:59:06
469,holualoa,19.6228,-155.9522,28.24,72,20,3.09,US,2024-09-16 02:51:56
470,san antonio de pale,-1.4014,5.6325,24.26,87,35,4.68,GQ,2024-09-16 02:57:26
471,yuanping,38.7153,112.7575,23.01,62,0,0.97,CN,2024-09-16 02:59:09
472,viveiro,43.6623,-7.5934,15.69,81,13,7.39,ES,2024-09-16 02:59:11
473,santiago de cao,-7.9589,-79.2392,16.07,88,8,3.6,PE,2024-09-16 02:59:12
474,san andres,12.5847,-81.7006,30.01,84,20,2.06,CO,2024-09-16 02:59:13
475,kalajoki,64.25,23.95,5.44,90,7,3.03,FI,2024-09-16 02:59:14
476,mumbwa,-14.9783,27.0619,19.91,28,0,3.06,ZM,2024-09-16 02:59:15
477,magaria,12.9983,8.9099,27.42,62,38,3.2,NE,2024-09-16 02:59:16
478,luderitz,-26.6481,15.1594,11.45,75,0,8.25,NA,2024-09-16 02:59:18
479,olavarria,-36.8927,-60.3225,7.49,71,0,3.38,AR,2024-09-16 02:59:19
480,blackwater,-23.5833,148.8833,25.56,31,1,5.17,AU,2024-09-16 02:59:22
481,fort bragg,35.139,-79.006,22.91,85,75,5.66,US,2024-09-16 02:59:23
482,juba,4.8517,31.5825,21.23,92,54,0.96,SS,2024-09-16 02:59:24
483,port saint john's,-31.6229,29.5448,18.21,89,57,2.18,ZA,2024-09-16 02:59:25
484,villa regina,-39.1,-67.0667,13.32,20,2,0.45,AR,2024-09-16 02:59:26
485,tabas,33.5959,56.9244,24.7,24,7,1.45,IR,2024-09-16 02:59:27
486,ouesso,1.6136,16.0517,21.5,99,100,0.53,CG,2024-09-16 02:59:28
487,nadym,65.5333,72.5167,10.69,68,22,6.94,RU,2024-09-16 02:53:17
488,feijo,-8.1642,-70.3536,27.04,57,59,0.71,BR,2024-09-16 02:59:30
489,al marj,32.488,20.8317,19.91,67,23,3.16,LY,2024-09-16 02:59:31
490,sawakin,19.1059,37.3321,30.29,77,84,3.18,SD,2024-09-16 02:59:34
491,quelimane,-17.8786,36.8883,22.97,88,0,4.12,MZ,2024-09-16 02:59:35
492,armacao de buzios,-22.7469,-41.8817,21.19,95,1,4.86,BR,2024-09-16 02:59:36
493,belmonte,-15.8631,-38.8828,22.13,89,39,2.88,BR,2024-09-16 02:59:37
494,monterey,36.2505,-121.2516,12.73,66,100,4.45,US,2024-09-16 02:59:38
495,williamson,30.6502,-97.6003,27.66,66,20,3.6,US,2024-09-16 02:59:39
496,arar,30.9753,41.0381,25.01,47,0,7.2,SA,2024-09-16 02:59:40
497,enshi,30.3,109.4833,30.24,60,16,0.4,CN,2024-09-16 02:59:41
498,matonga,-2.3833,34.0833,20.7,47,18,2.22,TZ,2024-09-16 02:59:42
499,humaita,-7.5061,-63.0208,29.93,38,79,1.63,BR,2024-09-16 02:59:43
500,la cruz,23.9167,-106.9,24.04,72,5,1.01,MX,2024-09-16 02:59:44
501,monte patria,-30.6919,-70.9467,18.44,37,32,0.72,CL,2024-09-16 02:59:45
502,laascaanood,8.4774,47.3597,21.62,63,24,12.85,SO,2024-09-16 02:59:47
503,broome,42.2506,-75.833,20.17,77,92,0.89,US,2024-09-16 02:59:48
504,mangalia,43.8,28.5833,13.92,87,59,6.02,RO,2024-09-16 02:59:49
505,san pedro pochutla,15.7333,-96.4667,27.62,86,94,1.42,MX,2024-09-16 02:59:50
506,taro,-8.3862,115.28,28.14,46,100,1.69,ID,2024-09-16 02:59:51
507,kirakira,-10.4544,161.9205,28.73,79,37,2.38,SB,2024-09-16 02:59:52
508,shalqar,47.8333,59.6,15.77,52,78,6.97,KZ,2024-09-16 02:52:49
509,kamaishi,39.2667,141.8833,20.35,71,97,3.49,JP,2024-09-16 02:59:54
510,smithers,54.7804,-127.1743,13.18,58,100,4.12,CA,2024-09-16 02:59:55
511,iringa,-7.7667,35.7,10.6,83,0,2.26,TZ,2024-09-16 02:59:56
512,mishan,45.55,131.8833,14.38,75,100,5.58,CN,2024-09-16 02:59:57
513,henley beach,-34.9206,138.4944,17.06,52,20,5.14,AU,2024-09-16 02:59:59
514,karratha,-20.7377,116.8463,30.19,16,1,10.03,AU,2024-09-16 03:00:00
515,ilha de mocambique,-15.0342,40.7358,24.52,73,0,4.89,MZ,2024-09-16 03:00:01
516,songkhla,6.8333,100.6667,29.31,65,100,4.76,TH,2024-09-16 03:00:02
517,tamanrasset,22.785,5.5228,20.95,73,0,2.06,DZ,2024-09-16 03:00:03
518,urumqi,43.801,87.6005,16.53,45,0,2.0,CN,2024-09-16 03:00:04
519,sao joao da barra,-21.6403,-41.0511,22.66,91,9,6.34,BR,2024-09-16 02:56:30
520,yarmouth,41.7057,-70.2286,14.78,88,0,1.34,US,2024-09-16 02:51:34
521,katoya,23.65,88.1333,27.49,89,100,9.66,IN,2024-09-16 03:00:07
522,kyshtovka,56.555,76.6271,6.03,71,4,3.91,RU,2024-09-16 03:00:08
523,kertih,4.5141,103.4483,29.01,79,20,1.54,MY,2024-09-16 03:00:09
524,alice springs,-23.7,133.8833,16.75,20,75,8.66,AU,2024-09-16 03:00:11
525,rio rico,31.4715,-110.9765,24.8,56,75,2.06,US,2024-09-16 03:00:12
526,lincoln city,44.9582,-124.0179,15.39,87,22,4.02,US,2024-09-16 03:00:13
527,buurhakaba,2.8026,44.0781,22.53,86,55,4.38,SO,2024-09-16 03:00:14
528,klaksvik,62.2266,-6.589,8.23,76,97,5.61,FO,2024-09-16 03:00:15
529,al ghayzah,16.2079,52.176,25.23,89,99,3.05,YE,2024-09-16 02:50:49
530,mbaiki,3.8678,17.9892,20.66,99,100,0.83,CF,2024-09-16 03:00:17
531,porlamar,10.958,-63.8491,29.05,84,6,5.14,VE,2024-09-16 03:00:18
532,fastiv,50.0767,29.9177,18.46,37,100,7.92,UA,2024-09-16 03:00:19
533,udomlya,57.8794,34.9925,12.6,65,74,1.58,RU,2024-09-16 03:00:20
534,christchurch,-43.5333,172.6333,12.96,70,75,5.66,NZ,2024-09-16 02:48:07
535,vila velha,-20.3297,-40.2925,23.97,89,75,3.13,BR,2024-09-16 02:53:18
536,ta`u,-14.2336,-169.5144,26.63,80,32,5.29,AS,2024-09-16 03:00:25
537,mao,39.8885,4.2658,18.31,72,0,4.63,ES,2024-09-16 02:53:13
538,maracacume,-2.0428,-45.9592,21.61,98,6,1.42,BR,2024-09-16 03:00:27
539,abadan,30.3392,48.3043,30.68,23,0,3.72,IR,2024-09-16 03:00:28
540,tawau,4.2498,117.8871,31.07,66,100,5.81,MY,2024-09-16 03:00:30
541,lyubimets,41.8333,26.0833,14.43,81,81,3.01,BG,2024-09-16 03:00:32
542,sinabang,2.4803,96.3801,26.41,82,100,0.63,ID,2024-09-16 02:55:58
543,sabang,5.8933,95.3214,27.98,75,60,11.37,ID,2024-09-16 02:52:44
544,liuduzhai,27.3661,110.935,22.89,95,100,1.67,CN,2024-09-16 03:00:35
545,lycksele,64.5954,18.6735,-0.07,100,100,0.0,SE,2024-09-16 03:00:36
546,las veredas,23.1388,-109.7075,28.87,74,74,0.94,MX,2024-09-16 03:00:37
547,manokwari,-0.8667,134.0833,28.55,73,24,2.63,ID,2024-09-16 03:00:38
548,tralee,52.2704,-9.7026,9.79,92,81,1.63,IE,2024-09-16 03:00:39
549,aleksandrovsk-sakhalinskiy,50.8975,142.1561,16.81,61,38,7.75,RU,2024-09-16 03:00:40
550,tila,17.4,-92.4833,21.55,98,89,1.78,MX,2024-09-16 03:00:41
551,nuuk,64.1835,-51.7216,3.34,100,100,2.06,GL,2024-09-16 03:00:42
552,kidal,18.4411,1.4078,29.56,52,100,3.13,ML,2024-09-16 03:00:43
553,cabedelo,-6.9811,-34.8339,22.37,75,26,7.47,BR,2024-09-16 03:00:45
554,seven pagodas,12.6264,80.1722,30.64,50,27,7.13,IN,2024-09-16 03:00:46
555,macon,39.8667,-88.9668,22.36,51,100,2.55,US,2024-09-16 03:00:47
556,besisahar,28.2313,84.3761,23.27,78,96,0.56,NP,2024-09-16 03:00:48
557,grand falls-windsor,48.9332,-55.6649,8.06,88,78,2.49,CA,2024-09-16 03:00:49
558,bangassou,4.7413,22.8184,20.31,98,100,0.3,CF,2024-09-16 03:00:50
559,chemille-melay,47.2148,-0.7249,9.6,69,91,2.04,FR,2024-09-16 03:00:51
560,happy valley-goose bay,53.3168,-60.3315,11.17,82,40,1.54,CA,2024-09-16 03:00:52
561,camarinas,43.1311,-9.1817,14.4,63,30,9.48,ES,2024-09-16 03:00:53
562,lyubim,58.3625,40.6843,11.9,85,47,1.53,RU,2024-09-16 03:00:54
563,sao francisco de paula,-29.4481,-50.5836,7.79,95,86,1.62,BR,2024-09-16 03:00:56
564,severo-yeniseyskiy,60.3725,93.0408,2.12,66,13,2.81,RU,2024-09-16 03:00:57
565,mermoz boabab,14.7065,-17.4758,27.35,84,96,3.4,SN,2024-09-16 03:00:58
566,banda aceh,5.5577,95.3222,30.16,60,17,7.78,ID,2024-09-16 03:00:59
567,mount pearl,47.5166,-52.7813,8.51,89,20,3.09,CA,2024-09-16 02:56:20
568,waingapu,-9.6567,120.2641,29.55,49,82,5.0,ID,2024-09-16 02:56:07
569,juankoski,63.0667,28.35,5.98,91,0,0.62,FI,2024-09-16 03:01:02
570,kaka,37.3482,59.6143,18.75,57,88,1.79,TM,2024-09-16 03:01:03
571,zag,46.9441,99.165,9.65,32,0,3.19,MN,2024-09-16 03:01:04
572,vizinga,61.0749,50.1031,14.69,94,98,1.4,RU,2024-09-16 03:01:07
573,la ronge,55.1001,-105.2842,14.14,82,100,2.06,CA,2024-09-16 02:58:16
574,claveria,18.6074,121.0832,24.82,91,100,5.19,PH,2024-09-16 03:01:09
575,mwinilunga,-11.7358,24.4293,18.08,32,0,1.96,ZM,2024-09-16 03:01:10
576,zhangjiakou,40.81,114.8794,15.93,88,100,1.17,CN,2024-09-16 03:01:11
577,tsiombe,-25.3,45.4833,19.27,71,6,0.57,MG,2024-09-16 02:51:55
578,baie-comeau,49.2168,-68.1489,11.82,94,0,1.03,CA,2024-09-16 03:01:13
579,papao,-17.75,-149.55,25.82,81,38,3.02,PF,2024-09-16 03:01:14
