City_ID,City,Lat,Lng,Max Temp,Humidity,Cloudiness,Wind Speed,Country,Date
0,port mathurin,-19.6833,63.4167,21.38,74,11,11.67,MU,2024-09-16 16:44:36
1,emerald,-23.5333,148.1667,15.19,61,18,2.88,AU,2024-09-16 16:51:24
2,wailua homesteads,22.0669,-159.378,25.44,88,75,5.66,US,2024-09-16 16:51:25
3,puerto ayora,-0.7393,-90.3518,21.97,91,91,2.68,EC,2024-09-16 16:51:26
4,port-aux-francais,-49.35,70.2167,4.31,94,100,15.52,TF,2024-09-16 16:44:14
5,bredasdorp,-34.5322,20.0403,10.34,77,0,2.36,ZA,2024-09-16 16:51:28
6,umluj,25.0213,37.2685,30.08,71,0,3.62,SA,2024-09-16 16:51:29
7,uturoa,-16.7333,-151.4333,25.36,80,76,4.72,PF,2024-09-16 16:51:31
8,lebu,-37.6167,-73.65,12.91,61,100,7.18,CL,2024-09-16 16:51:32
9,ta`u,-14.2336,-169.5144,26.44,76,8,3.12,AS,2024-09-16 16:51:33
10,puerto aysen,-45.4,-72.7,5.94,100,100,1.96,CL,2024-09-16 16:51:34
11,oranjemund,-28.55,16.4333,12.71,83,6,8.71,NA,2024-09-16 16:51:35
12,porto novo,6.4965,2.6036,27.9,72,68,4.54,BJ,2024-09-16 16:51:36
13,east london,-33.0153,27.9116,17.52,77,20,4.63,ZA,2024-09-16 16:51:37
14,port elizabeth,-33.918,25.5701,16.29,79,20,4.12,ZA,2024-09-16 16:44:07
15,novo aripuana,-5.1206,-60.3797,43.3,17,0,1.83,BR,2024-09-16 16:51:39
16,san antonio de pale,-1.4014,5.6325,24.67,82,82,6.17,GQ,2024-09-16 16:51:41
17,corumba,-19.0092,-57.6533,23.84,78,75,5.14,BR,2024-09-16 16:51:42
18,fukuecho,32.6881,128.8419,28.1,83,67,2.82,JP,2024-09-16 16:51:43
19,blackmans bay,-43.0167,147.3167,9.07,81,100,3.43,AU,2024-09-16 16:44:08
20,hawaiian paradise park,19.5933,-154.9731,24.73,97,100,4.63,US,2024-09-16 16:51:45
21,dolinsk,47.35,142.8,12.31,89,100,3.98,RU,2024-09-16 16:51:47
22,holualoa,19.6228,-155.9522,24.91,85,40,3.6,US,2024-09-16 16:51:49
23,inongo,-1.95,18.2667,23.44,78,100,2.22,CD,2024-09-16 16:51:50
24,ushuaia,-54.8,-68.3,9.81,50,20,8.75,AR,2024-09-16 16:51:51
25,puerto natales,-51.7236,-72.4875,13.25,54,75,12.35,CL,2024-09-16 16:44:10
26,margate,51.3813,1.3862,17.15,73,90,0.45,GB,2024-09-16 16:51:53
27,colonia menno,-22.3667,-59.8167,29.83,24,0,4.38,PY,2024-09-16 16:51:54
28,avarua,-21.2078,-159.775,22.03,88,20,3.6,CK,2024-09-16 16:51:55
29,prince rupert,54.3161,-130.3201,12.05,99,100,12.35,CA,2024-09-16 16:51:56
30,isafjordur,66.0755,-23.124,8.02,53,100,4.12,IS,2024-09-16 16:51:57
31,waitangi,-43.9535,-176.5597,9.9,95,100,3.58,NZ,2024-09-16 16:44:30
32,longyearbyen,78.2186,15.6401,7.91,76,75,7.72,SJ,2024-09-16 16:52:00
33,copala,16.65,-98.9833,29.41,71,100,1.93,MX,2024-09-16 16:52:01
34,tiksi,71.6872,128.8694,1.33,91,100,7.69,RU,2024-09-16 16:52:02
35,gbarnga,6.9956,-9.4722,25.81,87,95,2.02,LR,2024-09-16 16:52:03
36,el sauce,12.8869,-86.539,32.33,61,47,0.78,NI,2024-09-16 16:52:04
37,novaya igirma,57.1334,103.9112,-2.29,98,69,0.97,RU,2024-09-16 16:52:05
38,ulysses,37.5814,-101.3552,32.02,27,0,8.75,US,2024-09-16 16:52:06
39,wewak,-3.5534,143.6268,26.7,87,91,2.94,PG,2024-09-16 16:52:07
40,west island,-12.1568,96.8225,25.99,73,73,8.75,CC,2024-09-16 16:52:09
41,codrington,-38.2667,141.9667,6.39,87,94,3.79,AU,2024-09-16 16:52:10
42,albany,42.6001,-73.9662,26.56,59,0,0.89,US,2024-09-16 16:52:11
43,kone,-21.0595,164.8658,18.93,66,97,3.79,NC,2024-09-16 16:52:12
44,kingston,17.997,-76.7936,33.98,66,20,8.23,JM,2024-09-16 16:52:13
45,adamstown,-25.066,-130.1015,19.9,88,100,9.09,PN,2024-09-16 16:52:14
46,invercargill,-46.4,168.35,1.68,88,91,3.13,NZ,2024-09-16 16:44:33
47,lihue,21.9789,-159.3672,25.77,85,75,5.66,US,2024-09-16 16:52:16
48,cooper's town,26.8667,-77.5167,29.34,72,100,3.52,BS,2024-09-16 16:52:17
49,jamestown,42.097,-79.2353,25.57,47,0,2.68,US,2024-09-16 16:52:19
50,angra do heroismo,38.65,-27.2167,26.34,76,75,1.34,PT,2024-09-16 16:52:20
51,red bluff,40.1785,-122.2358,15.73,88,20,4.12,US,2024-09-16 16:49:38
52,badger,64.8,-147.5333,4.43,96,75,0.0,US,2024-09-16 16:52:22
53,polyarnyy,69.1989,33.4478,10.75,91,98,4.87,RU,2024-09-16 16:52:24
54,vadso,70.0744,29.7487,11.09,93,0,1.54,NO,2024-09-16 16:52:25
55,iqaluit,63.7506,-68.5145,2.85,86,100,6.71,CA,2024-09-16 16:44:19
56,hamilton,39.1834,-84.5333,30.14,46,0,1.54,US,2024-09-16 16:52:27
57,ilulissat,69.2167,-51.1,2.01,87,75,2.06,GL,2024-09-16 16:52:29
58,chardara,41.2547,67.9692,23.53,32,100,7.64,KZ,2024-09-16 16:52:30
59,domna,51.8971,113.1573,4.09,87,1,1.0,RU,2024-09-16 16:52:31
60,sanibel,26.449,-82.0223,31.12,72,84,0.45,US,2024-09-16 16:52:32
61,grytviken,-54.2811,-36.5092,1.5,92,96,6.46,GS,2024-09-16 16:44:06
62,klyuchi,52.2667,79.1667,6.5,55,31,4.08,RU,2024-09-16 16:52:34
63,antofagasta,-23.65,-70.4,17.6,70,62,3.16,CL,2024-09-16 16:52:35
64,koster,-25.863,26.8976,20.3,41,93,0.8,ZA,2024-09-16 16:52:36
65,juneau,58.3019,-134.4197,12.45,98,75,3.6,US,2024-09-16 16:52:38
66,guiren,33.6697,118.1889,26.43,91,100,9.24,CN,2024-09-16 16:52:39
67,udachny,66.4167,112.4,3.74,85,100,6.54,RU,2024-09-16 16:52:40
68,georgetown,5.4112,100.3354,25.96,87,20,3.6,MY,2024-09-16 16:52:41
69,mazyr,52.0495,29.2456,20.79,35,3,4.01,BY,2024-09-16 16:52:42
70,afif,23.9065,42.9172,31.99,13,12,2.0,SA,2024-09-16 16:52:43
71,tralee,52.2704,-9.7026,20.14,73,100,2.57,IE,2024-09-16 16:52:44
72,kapuskasing,49.4169,-82.4331,27.05,57,75,7.2,CA,2024-09-16 16:52:45
73,talnakh,69.4865,88.3972,4.48,97,100,1.39,RU,2024-09-16 16:52:47
74,fort mcmurray,56.7268,-111.381,15.73,58,100,5.66,CA,2024-09-16 16:51:36
75,utrik,11.2278,169.8474,28.17,76,62,5.27,MH,2024-09-16 16:44:34
76,martapura,-3.4167,114.85,26.05,83,75,0.0,ID,2024-09-16 16:52:50
77,gorontalo,0.5412,123.0595,23.35,92,96,0.79,ID,2024-09-16 16:52:51
78,nueva gerona,21.8833,-82.8,32.7,59,92,5.07,CU,2024-09-16 16:52:52
79,santanyi,39.3546,3.1291,24.15,49,64,2.64,ES,2024-09-16 16:52:53
80,ponta delgada,37.7333,-25.6667,25.4,53,20,3.6,PT,2024-09-16 16:52:54
81,perryville,37.7242,-89.8612,29.0,65,40,0.0,US,2024-09-16 16:52:55
82,edinburgh of the seven seas,-37.0676,-12.3116,13.12,86,74,12.66,SH,2024-09-16 16:52:57
83,bafq,31.6128,55.4107,29.12,20,10,3.95,IR,2024-09-16 16:52:58
84,ust-nera,64.5667,143.2,1.92,81,79,2.95,RU,2024-09-16 16:52:59
85,labrador city,52.9463,-66.9114,20.1,64,75,7.15,CA,2024-09-16 16:53:00
86,amlapura,-8.45,115.6167,22.11,83,41,3.26,ID,2024-09-16 16:53:01
87,dongxi,28.7614,106.6611,23.71,75,3,2.5,CN,2024-09-16 16:53:02
88,bethel,41.3712,-73.414,25.03,47,0,2.57,US,2024-09-16 16:44:35
89,kodiak,57.79,-152.4072,6.73,81,40,3.09,US,2024-09-16 16:53:04
90,itoman,26.1247,127.6694,29.21,79,20,6.69,JP,2024-09-16 16:53:06
91,college,64.8569,-147.8028,4.48,95,75,0.0,US,2024-09-16 16:53:07
92,keflavik,64.0049,-22.5624,8.24,87,100,10.8,IS,2024-09-16 16:53:08
93,vanimo,-2.6741,141.3028,26.08,93,91,2.83,PG,2024-09-16 16:53:09
94,beberibe,-4.1797,-38.1306,29.46,53,0,6.49,BR,2024-09-16 16:53:10
95,topolobampo,25.6,-109.05,27.96,76,100,4.11,MX,2024-09-16 16:53:11
96,walvis bay,-22.9575,14.5053,13.01,88,7,6.97,NA,2024-09-16 16:53:12
97,ribeira grande,38.5167,-28.7,24.32,83,75,7.72,PT,2024-09-16 16:53:13
98,thompson,55.7435,-97.8558,14.09,77,75,0.0,CA,2024-09-16 16:53:14
99,callao,-12.0667,-77.15,20.4,88,100,2.57,PE,2024-09-16 16:53:16
100,hermanus,-34.4187,19.2345,13.78,73,0,5.67,ZA,2024-09-16 16:53:17
101,olonkinbyen,70.9221,-8.7187,1.32,83,100,7.08,SJ,2024-09-16 16:53:18
102,makarov,48.6333,142.8,13.34,84,100,3.18,RU,2024-09-16 16:53:19
103,dongsheng,39.8161,109.9776,15.37,85,79,1.52,CN,2024-09-16 16:53:20
104,mount isa,-20.7333,139.5,22.87,25,76,5.66,AU,2024-09-16 16:53:21
105,mankapur,27.0333,82.2333,26.9,76,96,1.7,IN,2024-09-16 16:53:22
106,marsh harbour,26.5412,-77.0636,29.86,70,89,2.63,BS,2024-09-16 16:53:23
107,fuglafjordur,62.244,-6.814,9.71,95,100,9.0,FO,2024-09-16 16:53:24
108,tazovsky,67.4667,78.7,8.66,95,100,4.49,RU,2024-09-16 16:53:26
109,kalamata,37.0389,22.1142,23.87,50,20,5.14,GR,2024-09-16 16:53:28
110,mount gambier,-37.8333,140.7667,9.75,64,99,3.36,AU,2024-09-16 16:53:29
111,mossel bay,-34.1831,22.146,15.96,69,1,3.29,ZA,2024-09-16 16:44:40
112,brisas de zicatela,15.8369,-97.0419,30.26,71,74,2.8,MX,2024-09-16 16:53:31
113,tura,25.5198,90.2201,24.62,90,100,1.5,IN,2024-09-16 16:53:32
114,conduaga,8.862,117.4893,26.25,90,100,3.64,PH,2024-09-16 16:53:33
115,la ronge,55.1001,-105.2842,16.14,72,20,2.57,CA,2024-09-16 16:53:34
116,bangassou,4.7413,22.8184,25.21,73,92,1.63,CF,2024-09-16 16:53:36
117,ibarreta,-25.2144,-59.8585,30.39,16,0,3.39,AR,2024-09-16 16:53:37
118,galveston,29.3669,-94.9669,32.25,74,100,4.12,US,2024-09-16 16:53:38
119,khash,28.2211,61.2158,26.92,23,19,2.58,IR,2024-09-16 16:53:39
120,safotu,-13.4513,-172.4018,26.92,77,91,3.65,WS,2024-09-16 16:53:40
121,yellowknife,62.456,-114.3525,10.79,98,100,7.72,CA,2024-09-16 16:44:22
122,harstad,68.799,16.5293,11.75,85,97,15.2,NO,2024-09-16 16:53:42
123,pangody,65.85,74.4859,12.58,92,87,3.6,RU,2024-09-16 16:53:43
124,enewetak,11.3474,162.3373,28.32,78,24,4.27,MH,2024-09-16 16:53:44
125,takoradi,4.8845,-1.7554,26.64,74,95,4.77,GH,2024-09-16 16:53:46
126,bindki,26.0333,80.6,27.86,76,97,1.2,IN,2024-09-16 16:53:47
127,labuan,5.2767,115.2417,28.2,83,20,1.03,MY,2024-09-16 16:53:50
128,ruteng,-8.6136,120.4721,15.53,94,93,1.04,ID,2024-09-16 16:53:51
129,new norfolk,-42.7826,147.0587,9.28,96,100,2.22,AU,2024-09-16 16:53:53
130,luis correia,-2.8792,-41.6669,33.0,46,0,8.23,BR,2024-09-16 16:53:55
131,coahuayana de hidalgo,18.7,-103.6583,32.53,60,36,1.51,MX,2024-09-16 16:53:56
132,arawa,-6.2132,155.5367,24.35,93,84,0.83,PG,2024-09-16 16:53:57
133,nuuk,64.1835,-51.7216,4.36,83,71,1.94,GL,2024-09-16 16:53:58
134,bam,29.106,58.357,30.16,19,0,1.18,IR,2024-09-16 16:53:59
135,lompoc,34.6391,-120.4579,18.07,75,75,4.63,US,2024-09-16 16:49:15
136,margaret river,-33.95,115.0667,11.09,82,0,2.88,AU,2024-09-16 16:54:01
137,smithers,54.7804,-127.1743,9.18,100,75,1.54,CA,2024-09-16 16:54:02
138,saipan,15.1355,145.701,29.39,79,75,7.2,MP,2024-09-16 16:54:03
139,sarangani,5.4033,125.4636,28.24,80,100,8.4,PH,2024-09-16 16:54:04
140,novodvinsk,64.4165,40.8122,13.86,90,2,1.64,RU,2024-09-16 16:54:06
141,kattivakkam,13.2167,80.3167,31.05,76,84,4.43,IN,2024-09-16 16:54:08
142,kupang,-10.1667,123.5833,27.32,83,69,4.12,ID,2024-09-16 16:54:09
143,shreveport,32.5251,-93.7502,25.03,74,100,2.06,US,2024-09-16 16:52:28
144,punta arenas,-53.15,-70.9167,10.06,62,0,14.4,CL,2024-09-16 16:50:58
145,saint-felix-de-valois,46.1668,-73.4324,26.69,68,15,2.24,CA,2024-09-16 16:54:13
146,nagqu,31.5,92.0,3.77,82,43,1.92,CN,2024-09-16 16:54:14
147,anadyr,64.75,177.4833,3.28,93,40,3.0,RU,2024-09-16 16:54:15
148,mayqayyng,51.4625,75.7986,6.08,61,6,3.39,KZ,2024-09-16 16:54:16
149,port macquarie,-31.4333,152.9167,11.71,80,1,1.34,AU,2024-09-16 16:54:17
150,lorengau,-2.0226,147.2712,27.35,83,22,3.81,PG,2024-09-16 16:54:18
151,queenstown,-31.8976,26.8753,12.27,75,57,5.64,ZA,2024-09-16 16:54:19
152,yokadouma,3.5167,15.05,23.68,82,90,0.99,CM,2024-09-16 16:54:21
153,urumqi,43.801,87.6005,16.53,42,0,3.0,CN,2024-09-16 16:54:22
154,papatowai,-46.5619,169.4708,2.84,76,52,6.1,NZ,2024-09-16 16:54:23
155,brookings,44.3114,-96.7984,23.0,78,0,7.2,US,2024-09-16 16:54:24
156,almenara,-16.1836,-40.6944,34.25,25,5,2.39,BR,2024-09-16 16:54:25
157,port moresby,-9.4431,147.1797,24.68,88,75,2.57,PG,2024-09-16 16:54:26
158,ust'-uda,54.1742,103.0304,2.05,72,100,1.91,RU,2024-09-16 16:54:27
159,melekeok village,7.4957,134.6367,29.31,79,100,4.63,PW,2024-09-16 16:54:28
160,sitka,57.0531,-135.33,12.94,88,100,4.63,US,2024-09-16 16:54:29
161,sinabang,2.4803,96.3801,25.33,88,100,2.3,ID,2024-09-16 16:54:32
162,cartagena del chaira,1.3349,-74.8429,36.97,37,74,0.59,CO,2024-09-16 16:54:33
163,bilibino,68.0546,166.4372,-1.41,98,98,1.47,RU,2024-09-16 16:54:34
164,vorgashor,67.5833,63.95,12.89,92,91,1.04,RU,2024-09-16 16:54:35
165,hasaki,35.7333,140.8333,23.93,88,74,5.35,JP,2024-09-16 16:54:36
166,huarmey,-10.0681,-78.1522,20.42,68,6,4.95,PE,2024-09-16 16:54:37
167,puerto baquerizo moreno,-0.9,-89.6,22.55,78,100,7.2,EC,2024-09-16 16:54:38
168,gua musang,4.8823,101.9644,23.1,97,100,0.67,MY,2024-09-16 16:54:40
169,whitehorse,60.7161,-135.0538,8.94,71,75,5.66,CA,2024-09-16 16:54:42
170,beira,-19.8436,34.8389,29.05,70,0,6.17,MZ,2024-09-16 16:54:43
171,castillos,-34.1667,-53.8333,20.17,47,0,2.52,UY,2024-09-16 16:54:44
172,muynoq,43.7683,59.0214,19.44,65,10,7.56,UZ,2024-09-16 16:54:45
173,pont rouge,48.8833,-72.0825,26.6,48,16,4.52,CA,2024-09-16 16:54:47
174,lopez,13.8844,122.2642,25.88,87,100,1.21,PH,2024-09-16 16:54:49
175,yanta,36.2411,115.6672,21.0,68,13,4.3,CN,2024-09-16 16:54:50
176,anqing,30.5092,117.0506,26.55,72,100,1.49,CN,2024-09-16 16:54:51
177,calvinia,-31.4707,19.776,16.54,40,0,3.84,ZA,2024-09-16 16:54:52
178,hammerfest,70.6634,23.6821,13.25,58,0,1.03,NO,2024-09-16 16:54:53
179,afaahiti,-17.75,-149.2833,24.07,87,90,6.42,PF,2024-09-16 16:54:54
180,greymouth,-42.4667,171.2,6.65,74,100,5.03,NZ,2024-09-16 16:54:55
181,allapalli,19.4167,80.0667,23.44,95,97,1.2,IN,2024-09-16 16:54:56
182,guarapari,-20.6667,-40.4975,26.83,63,0,11.36,BR,2024-09-16 16:54:58
183,tangalle,6.024,80.7911,26.83,85,97,4.89,LK,2024-09-16 16:54:59
184,shahritus,37.2637,68.1385,26.28,18,94,2.27,TJ,2024-09-16 16:55:00
185,celestun,20.8667,-90.4,33.62,53,92,1.18,MX,2024-09-16 16:55:01
186,arraial do cabo,-22.9661,-42.0278,26.98,69,0,6.17,BR,2024-09-16 16:55:01
187,rio grande,-32.035,-52.0986,17.23,67,0,3.25,BR,2024-09-16 16:55:03
188,geraldton,-28.7667,114.6,12.23,58,0,3.09,AU,2024-09-16 16:55:04
189,saint-pierre,-21.3393,55.4781,20.82,68,20,1.54,RE,2024-09-16 16:55:05
190,praia da vitoria,38.7333,-27.0667,26.14,61,75,7.41,PT,2024-09-16 16:55:07
191,vila do maio,15.1333,-23.2167,26.37,77,97,4.9,CV,2024-09-16 16:55:08
192,kanniyakumari,8.0833,77.5667,27.03,82,88,10.53,IN,2024-09-16 16:55:09
193,chernyshkovskiy,48.4219,42.2308,22.51,28,33,6.33,RU,2024-09-16 16:55:10
194,paradip garh,20.3167,86.6167,27.65,80,95,3.91,IN,2024-09-16 16:55:11
195,happy valley-goose bay,53.3168,-60.3315,19.17,77,100,3.6,CA,2024-09-16 16:55:12
196,dunedin,-45.8742,170.5036,3.22,80,89,1.79,NZ,2024-09-16 16:55:13
197,isabel segunda,18.1491,-65.4427,31.85,71,18,5.59,PR,2024-09-16 16:55:16
198,kaduy,59.2,37.15,16.79,59,14,2.03,RU,2024-09-16 16:55:17
199,galesong,-5.3166,119.3661,25.68,68,53,1.86,ID,2024-09-16 16:55:18
200,cova figueira,14.8905,-24.2934,20.5,80,96,3.8,CV,2024-09-16 16:55:19
201,biskra,34.8504,5.7281,32.73,25,0,2.57,DZ,2024-09-16 16:55:20
202,bembereke,10.2283,2.6634,26.8,83,52,0.79,BJ,2024-09-16 16:55:21
203,bardai,11.65,7.2333,26.63,72,85,2.32,NG,2024-09-16 16:55:22
204,nizhnesortymskiy,62.4397,71.7603,9.8,68,11,4.93,RU,2024-09-16 16:55:23
205,gantang,26.92,119.6333,25.43,93,100,1.37,CN,2024-09-16 16:55:24
206,ancud,-41.8697,-73.8203,10.75,63,98,0.4,CL,2024-09-16 16:55:26
207,san carlos,9.6612,-68.5827,30.69,68,98,1.24,VE,2024-09-16 16:51:25
208,noumea,-22.2763,166.4572,19.97,55,61,6.04,NC,2024-09-16 16:55:28
209,taghazout,30.5426,-9.7112,22.28,75,5,5.24,MA,2024-09-16 16:55:29
210,bechar,31.6167,-2.2167,33.18,21,40,3.6,DZ,2024-09-16 16:55:30
211,olinda,-8.0089,-34.8553,27.85,61,20,5.66,BR,2024-09-16 16:55:33
212,quellon,-43.1167,-73.6167,10.17,71,91,1.91,CL,2024-09-16 16:55:34
213,haiku-pauwela,20.9219,-156.3051,25.67,88,75,9.39,US,2024-09-16 16:55:35
214,kalix,65.853,23.1565,11.38,87,100,5.2,SE,2024-09-16 16:55:36
215,uyuni,-20.4597,-66.825,14.75,7,0,6.65,BO,2024-09-16 16:55:37
216,castelo do piaui,-5.3222,-41.5525,39.25,19,1,3.36,BR,2024-09-16 16:55:38
217,port alfred,-33.5906,26.891,16.77,81,15,0.45,ZA,2024-09-16 16:55:39
218,pokhara,28.2333,83.9833,21.99,72,99,1.72,NP,2024-09-16 16:55:40
219,aldinga beach,-35.2793,138.4604,7.58,87,0,2.32,AU,2024-09-16 16:55:42
220,zuwarah,32.9312,12.082,25.51,55,4,6.43,LY,2024-09-16 16:55:43
221,nikel,69.4128,30.222,9.23,76,91,3.2,RU,2024-09-16 16:55:44
222,kailua-kona,19.6406,-155.9956,26.98,80,40,3.6,US,2024-09-16 16:55:45
223,hailey,43.5196,-114.3153,19.41,66,75,4.12,US,2024-09-16 16:55:46
224,hilo,19.7297,-155.09,25.05,99,100,4.63,US,2024-09-16 16:55:47
225,luderitz,-26.6481,15.1594,13.77,81,0,13.06,NA,2024-09-16 16:55:48
226,itacarambi,-15.1022,-44.0919,36.33,19,3,1.77,BR,2024-09-16 16:55:49
227,aswan,24.0934,32.907,31.61,29,0,5.66,EG,2024-09-16 16:55:50
228,boundiali,9.5217,-6.4869,27.87,76,69,0.97,CI,2024-09-16 16:55:52
229,axim,4.8699,-2.2405,25.71,79,78,3.74,GH,2024-09-16 16:55:53
230,sokoni,-6.4333,39.55,25.06,81,5,5.42,TZ,2024-09-16 16:55:54
231,magadan,59.5667,150.8,5.06,62,98,3.3,RU,2024-09-16 16:55:55
232,port lincoln,-34.7333,135.8667,10.43,80,2,3.95,AU,2024-09-16 16:55:56
233,kruisfontein,-34.0033,24.7314,11.83,74,35,1.79,ZA,2024-09-16 16:55:57
234,valparaiso,-33.0393,-71.6273,18.8,56,0,1.54,CL,2024-09-16 16:55:58
235,colonia,50.9333,6.95,20.53,65,0,3.09,DE,2024-09-16 16:55:59
236,basoko,1.2391,23.616,24.53,80,62,0.71,CD,2024-09-16 16:56:01
237,tual,-5.6667,132.75,26.69,85,87,6.15,ID,2024-09-16 16:56:02
238,bubaque,11.2833,-15.8333,25.71,86,100,7.88,GW,2024-09-16 16:56:03
239,port maria,18.3685,-76.8895,31.81,69,100,5.83,JM,2024-09-16 16:56:04
240,kenora,49.8167,-94.4337,22.54,83,75,3.09,CA,2024-09-16 16:54:46
241,villa yapacani,-17.4,-63.8333,29.55,21,100,3.45,BO,2024-09-16 16:56:06
242,tvoroyri,61.5556,-6.8111,10.84,94,100,11.06,FO,2024-09-16 16:56:07
243,kiunga,-6.1219,141.2906,23.52,95,99,1.59,PG,2024-09-16 16:56:08
244,roma,43.2128,-75.4557,27.6,61,0,2.24,US,2024-09-16 16:56:09
245,reggane,26.7158,0.1714,39.81,12,0,6.45,DZ,2024-09-16 16:56:11
246,at taj,24.2049,23.2857,33.9,26,0,5.78,LY,2024-09-16 16:56:12
247,atafu village,-8.5421,-172.5159,27.16,79,94,3.4,TK,2024-09-16 16:56:13
248,benguela,-12.5763,13.4055,22.33,84,68,2.7,AO,2024-09-16 16:56:14
249,eisenstadt,47.8457,16.5233,12.33,100,100,8.46,AT,2024-09-16 16:56:15
250,oyo,7.85,3.9333,26.47,86,87,1.59,NG,2024-09-16 16:56:16
251,san juan,-31.5375,-68.5364,25.99,17,59,6.05,AR,2024-09-16 16:56:20
252,port hedland,-20.3167,118.5667,25.03,20,19,5.66,AU,2024-09-16 16:56:21
253,esquel,-42.9,-71.3167,9.35,56,97,1.05,AR,2024-09-16 16:56:22
254,freetown,8.484,-13.2299,26.43,79,91,3.14,SL,2024-09-16 16:56:23
255,aban,56.67,96.06,2.67,72,87,1.24,RU,2024-09-16 16:56:25
256,srandakan,-7.9386,110.2506,23.57,82,30,0.79,ID,2024-09-16 16:56:26
257,aasiaat,68.7098,-52.8699,0.06,86,87,2.05,GL,2024-09-16 16:56:27
258,tarazona,41.9,-1.7333,19.69,39,90,9.85,ES,2024-09-16 16:56:28
259,lerwick,60.1545,-1.1494,11.4,78,100,4.13,GB,2024-09-16 16:56:29
260,al abyar,32.19,20.5965,22.4,59,24,4.25,LY,2024-09-16 16:56:30
261,sorong,-0.8833,131.25,26.33,90,99,4.35,ID,2024-09-16 16:56:31
262,turkmenbasy,40.0222,52.9552,21.43,18,0,3.09,TM,2024-09-16 16:56:33
263,juba,4.8517,31.5825,26.44,71,95,1.72,SS,2024-09-16 16:56:35
264,sola,-13.8833,167.55,25.26,86,73,10.61,VU,2024-09-16 16:56:36
265,fale old settlement,-9.3852,-171.2468,27.31,77,67,3.2,TK,2024-09-16 16:56:37
266,carnarvon,-24.8667,113.6333,21.75,35,0,5.85,AU,2024-09-16 16:56:38
267,clausthal-zellerfeld,51.8,10.3333,13.73,75,96,2.24,DE,2024-09-16 16:56:39
268,laojunmiao,39.8333,97.7333,14.53,71,42,3.26,CN,2024-09-16 16:56:41
269,dampit,-8.2116,112.7493,18.44,80,92,1.42,ID,2024-09-16 16:56:42
270,sengkang,-4.1279,120.0297,21.41,88,10,0.85,ID,2024-09-16 16:56:43
271,crane,31.3974,-102.3501,28.57,41,0,7.01,US,2024-09-16 16:56:45
272,tomatlan,19.9333,-105.25,31.72,67,49,1.04,MX,2024-09-16 16:56:47
273,auki,-8.7676,160.7034,24.38,91,72,1.07,SB,2024-09-16 16:56:48
274,sumberpucung,-8.1586,112.4829,18.67,100,52,0.53,ID,2024-09-16 16:56:49
275,yichang,30.7144,111.2847,24.9,77,32,0.92,CN,2024-09-16 16:56:50
276,cabo san lucas,22.8909,-109.9124,29.31,65,0,1.79,MX,2024-09-16 16:51:37
277,mahina,-17.5065,-149.489,24.87,88,0,1.54,PF,2024-09-16 16:56:52
278,rio gallegos,-51.6226,-69.2181,12.03,43,0,4.12,AR,2024-09-16 16:56:54
279,taber,49.8167,-112.1518,13.0,76,4,2.06,CA,2024-09-16 16:56:55
280,hami,42.8,93.45,22.23,19,0,2.76,CN,2024-09-16 16:56:56
281,varadero,23.1536,-81.2514,30.35,68,97,2.4,CU,2024-09-16 16:56:58
282,north bend,43.4065,-124.2243,15.09,94,40,0.0,US,2024-09-16 16:56:59
283,puerto santa,-8.9906,-78.6456,18.7,76,7,5.44,PE,2024-09-16 16:57:00
284,camana,-16.6228,-72.7111,17.88,74,33,3.47,PE,2024-09-16 16:57:03
285,mar del plata,-38.0023,-57.5575,22.01,24,0,6.69,AR,2024-09-16 16:57:04
286,minab,27.1467,57.0801,31.08,56,0,2.18,IR,2024-09-16 16:57:05
287,laguna,38.421,-121.4238,17.91,72,75,5.14,US,2024-09-16 16:55:26
288,ca mau,9.1769,105.15,26.14,85,100,5.55,VN,2024-09-16 16:57:07
289,saudarkrokur,65.7461,-19.6394,7.12,63,97,3.07,IS,2024-09-16 16:57:08
290,san juan de miraflores,-12.1629,-76.9635,19.54,79,21,4.11,PE,2024-09-16 16:57:10
291,cavelossim,15.1726,73.9419,25.99,83,100,2.3,IN,2024-09-16 16:57:11
292,westport,41.1415,-73.3579,23.92,66,0,4.63,US,2024-09-16 16:57:12
293,fisterra,42.9049,-9.2629,22.59,54,13,7.78,ES,2024-09-16 16:57:13
294,bafra,41.5678,35.9069,20.84,76,92,3.54,TR,2024-09-16 16:57:14
295,buka,40.8108,69.1986,21.85,22,96,2.01,UZ,2024-09-16 16:57:15
296,sinop,41.7711,34.8709,15.96,93,99,1.19,TR,2024-09-16 16:57:16
297,beaver dam,43.4578,-88.8373,29.45,43,0,0.89,US,2024-09-16 16:57:18
298,awjilah,29.1081,21.2869,31.36,32,1,3.38,LY,2024-09-16 16:57:19
299,petropavlovsk-kamchatsky,53.0452,158.6483,2.33,75,0,3.0,RU,2024-09-16 16:57:20
300,sycow,51.3081,17.7198,20.47,55,100,4.65,PL,2024-09-16 16:57:21
301,mawu,34.4307,104.9176,13.97,98,100,2.56,CN,2024-09-16 16:57:22
302,mijas,36.5957,-4.6373,24.25,58,0,3.6,ES,2024-09-16 16:57:23
303,stanley,54.868,-1.6985,15.01,71,0,2.57,GB,2024-09-16 16:57:24
304,delijan,33.9905,50.6838,24.44,31,4,1.81,IR,2024-09-16 16:57:25
305,barbacoas,1.6715,-78.1398,30.89,64,87,2.11,CO,2024-09-16 16:57:26
306,horta,38.5333,-28.6333,23.9,86,75,7.72,PT,2024-09-16 16:57:28
307,daru,-9.0763,143.2092,24.73,89,100,8.73,PG,2024-09-16 16:57:29
308,turbat,26.0023,63.044,28.21,71,25,3.38,PK,2024-09-16 16:57:31
309,qaqortoq,60.7167,-46.0333,4.98,82,99,2.6,GL,2024-09-16 16:57:32
310,chamical,-30.36,-66.314,26.35,17,8,10.73,AR,2024-09-16 16:57:33
311,novyy urengoy,66.0833,76.6333,12.65,92,95,4.39,RU,2024-09-16 16:57:32
312,whitefish,48.4111,-114.3376,15.91,59,0,5.14,US,2024-09-16 16:57:35
313,nuku'alofa,-21.1333,-175.2,21.19,100,75,0.51,TO,2024-09-16 16:57:37
314,cadillac,44.2519,-85.4012,27.95,39,0,3.6,US,2024-09-16 16:57:38
315,pong,19.1493,100.2752,23.23,99,78,0.21,TH,2024-09-16 16:57:39
316,ciudad guayana,8.3533,-62.6528,35.64,43,76,2.26,VE,2024-09-16 16:57:40
317,gejiu,23.306,103.1635,14.74,89,19,2.73,CN,2024-09-16 16:57:41
318,aleksandrovsk-sakhalinskiy,50.8975,142.1561,14.77,79,100,8.12,RU,2024-09-16 16:57:42
319,bahia de kino,28.8333,-111.9333,29.91,66,54,5.45,MX,2024-09-16 16:57:43
320,mount pearl,47.5166,-52.7813,21.36,56,75,12.35,CA,2024-09-16 16:56:02
321,darwin,-12.4611,130.8418,24.94,94,75,6.69,AU,2024-09-16 16:57:46
322,port-gentil,-0.7193,8.7815,26.98,83,75,6.17,GA,2024-09-16 16:57:47
323,ternate,0.8,127.4,26.57,86,92,4.3,ID,2024-09-16 16:57:48
324,san nicolas,18.1725,120.5953,23.95,100,100,1.03,PH,2024-09-16 16:57:49
325,st. catharines,43.1668,-79.2496,27.66,60,20,1.54,CA,2024-09-16 16:57:50
326,ulsteinvik,62.3432,5.8487,13.51,86,80,1.79,NO,2024-09-16 16:57:51
327,sao joao da barra,-21.6403,-41.0511,31.05,78,10,9.54,BR,2024-09-16 16:57:52
328,temiskaming shores,47.4938,-79.7153,25.89,41,10,4.87,CA,2024-09-16 16:57:53
329,istgah-e rah ahan-e garmsar,35.2346,52.3094,28.02,30,100,1.99,IR,2024-09-16 16:57:55
330,puerto armuelles,8.2833,-82.8667,27.83,79,58,3.58,PA,2024-09-16 16:55:12
331,miyoshi,35.0833,137.0667,28.21,79,46,2.04,JP,2024-09-16 16:57:57
332,shimanovsk,52.0,127.7,9.48,80,5,4.1,RU,2024-09-16 16:57:58
333,pimentel,-6.8367,-79.9342,21.16,64,0,8.23,PE,2024-09-16 16:57:59
334,raja,8.4596,25.678,22.59,94,64,1.85,SS,2024-09-16 16:58:00
335,kuta,-8.7233,115.1723,24.97,94,20,2.06,ID,2024-09-16 16:58:01
336,vuktyl,63.8567,57.3094,15.9,86,76,2.88,RU,2024-09-16 16:58:02
337,tulun,54.5611,100.5792,-0.82,86,89,1.47,RU,2024-09-16 16:58:04
338,shimoda,34.6667,138.95,24.25,91,37,4.05,JP,2024-09-16 16:58:05
339,motygino,58.1831,94.7592,-0.85,87,20,0.69,RU,2024-09-16 16:58:06
340,bolgar,54.95,49.0667,16.92,65,1,3.29,RU,2024-09-16 16:58:08
341,xinpu,34.5997,119.1594,26.53,91,100,5.81,CN,2024-09-16 16:58:09
342,mili,6.0815,171.735,28.19,71,52,1.97,MH,2024-09-16 16:58:10
343,yanchep,-31.55,115.6833,13.65,53,0,4.42,AU,2024-09-16 16:58:12
344,la passe,45.5549,-0.8967,21.69,39,74,5.66,FR,2024-09-16 16:58:14
345,yaren,-0.5472,166.916,27.98,69,100,2.54,NR,2024-09-16 16:58:15
346,concepcion,-36.827,-73.0498,13.89,58,0,5.14,CL,2024-09-16 16:58:16
347,kandra,22.85,86.05,23.89,96,100,2.19,IN,2024-09-16 16:58:17
348,pallasovka,50.05,46.8833,19.24,36,52,4.0,RU,2024-09-16 16:58:18
349,nyurba,63.2842,118.3319,-0.29,89,78,3.18,RU,2024-09-16 16:58:19
350,kerema,-7.9631,145.7785,24.29,93,100,3.01,PG,2024-09-16 16:58:21
351,peace river,56.2501,-117.286,14.17,62,0,6.17,CA,2024-09-16 16:58:23
352,broome,42.2506,-75.833,26.48,59,38,1.34,US,2024-09-16 16:58:24
353,karratha,-20.7377,116.8463,24.41,24,0,5.67,AU,2024-09-16 16:58:25
354,moral de calatrava,38.7919,-3.5786,30.71,8,48,6.39,ES,2024-09-16 16:58:26
355,sandnessjoen,66.0217,12.6316,13.06,82,75,4.63,NO,2024-09-16 16:58:27
356,hermiston,45.8404,-119.2895,19.37,61,20,2.06,US,2024-09-16 16:58:29
357,krutinka,56.0055,71.5113,7.67,70,20,1.97,RU,2024-09-16 16:58:30
358,saint-francois,46.4154,3.9054,16.69,67,100,5.66,FR,2024-09-16 16:58:31
359,manuguru,17.981,80.7547,24.15,91,85,2.22,IN,2024-09-16 16:58:32
360,colares,38.7992,-9.4469,33.55,18,0,5.66,PT,2024-09-16 16:58:33
361,san clemente del tuyu,-36.3569,-56.7235,16.86,59,0,4.01,AR,2024-09-16 16:58:34
362,taoudenni,22.6783,-3.9836,42.88,9,58,1.8,ML,2024-09-16 16:58:35
363,kas,36.2018,29.6377,23.81,48,2,6.2,TR,2024-09-16 16:58:37
364,dumai,1.6833,101.45,23.58,95,89,1.14,ID,2024-09-16 16:58:38
365,murzuq,25.9155,13.9184,35.45,19,0,2.93,LY,2024-09-16 16:58:39
366,marsa alam,25.0757,34.8918,30.27,53,0,4.09,EG,2024-09-16 16:58:40
367,castres,43.5833,2.1667,20.12,56,0,6.69,FR,2024-09-16 16:58:41
368,mogocha,53.7333,119.7667,3.01,75,0,1.7,RU,2024-09-16 16:58:42
369,chonchi,-42.6128,-73.8092,12.09,59,99,0.42,CL,2024-09-16 16:58:43
370,vila franca do campo,37.7167,-25.4333,25.23,63,29,3.28,PT,2024-09-16 16:58:44
371,castlegar,49.2998,-117.6689,18.5,38,1,1.27,CA,2024-09-16 16:55:01
372,bintulu,3.1667,113.0333,26.23,94,20,0.51,MY,2024-09-16 16:58:48
373,chagoda,59.164,35.3285,17.6,49,9,1.79,RU,2024-09-16 16:58:50
374,grand-bourg,15.8835,-61.3148,29.44,74,12,7.32,GP,2024-09-16 16:58:51
375,kasulu,-4.5767,30.1025,23.76,29,13,2.2,TZ,2024-09-16 16:58:53
376,port blair,11.6667,92.75,29.02,84,75,4.63,IN,2024-09-16 16:58:54
377,kurumkan,54.3,110.3,2.76,65,36,1.45,RU,2024-09-16 16:58:55
378,i-n-salah,27.1935,2.4607,40.23,11,0,6.16,DZ,2024-09-16 16:58:57
379,namie,37.4833,141.0,19.99,94,92,0.7,JP,2024-09-16 16:58:58
380,mejit,10.2753,170.8646,27.83,79,16,4.7,MH,2024-09-16 16:58:59
381,plastun,44.7561,136.2939,11.49,80,79,1.89,RU,2024-09-16 16:59:00
382,kita,13.0349,-9.4895,25.52,91,100,1.52,ML,2024-09-16 16:59:02
383,namibe,-15.1961,12.1522,18.48,83,63,2.4,AO,2024-09-16 16:59:03
384,petawawa,45.9001,-77.3328,25.99,61,0,2.06,CA,2024-09-16 16:59:04
385,rosarito,32.3333,-117.0333,20.54,67,100,3.24,MX,2024-09-16 16:59:05
386,lazaro cardenas,17.9583,-102.2,29.7,76,70,0.9,MX,2024-09-16 16:59:06
387,sinjai,-5.1241,120.253,21.77,78,44,1.91,ID,2024-09-16 16:59:07
388,tsiombe,-25.3,45.4833,21.92,77,10,2.96,MG,2024-09-16 16:59:08
389,gizo,-8.103,156.8419,26.76,81,51,1.97,SB,2024-09-16 16:59:09
390,sandefjord,59.1312,10.2167,16.82,83,0,2.57,NO,2024-09-16 16:57:46
391,santa terezinha,-29.9002,-50.0904,17.58,72,0,3.35,BR,2024-09-16 16:59:12
392,gurupi,-11.7292,-49.0686,39.98,11,0,2.52,BR,2024-09-16 16:59:13
393,nar'yan-mar,67.6713,53.087,16.4,70,100,3.83,RU,2024-09-16 16:59:14
394,vorkuta,67.5,64.0,13.09,92,90,1.09,RU,2024-09-16 16:59:15
395,bozhou,33.8772,115.7703,24.4,76,100,5.33,CN,2024-09-16 16:59:16
396,kurchum,48.5722,83.6542,9.45,48,11,5.29,KZ,2024-09-16 16:59:17
397,port saint john's,-31.6229,29.5448,18.3,84,100,2.58,ZA,2024-09-16 16:59:18
398,kerikeri,-35.2268,173.9474,7.17,88,56,3.48,NZ,2024-09-16 16:59:21
399,klaksvik,62.2266,-6.589,10.03,97,100,11.18,FO,2024-09-16 16:59:22
400,sukhobezvodnoye,57.0491,44.8891,16.24,66,48,1.89,RU,2024-09-16 16:59:23
401,nadi,-17.8,177.4167,23.0,88,40,1.54,FJ,2024-09-16 16:59:24
402,isangel,-19.55,169.2667,20.44,68,30,6.43,VU,2024-09-16 16:59:25
403,dudinka,69.4058,86.1778,3.86,94,58,3.49,RU,2024-09-16 16:56:44
404,iskateley,67.6803,53.1512,16.38,70,100,3.82,RU,2024-09-16 16:59:28
405,nantucket,41.2835,-70.0995,22.06,64,0,3.6,US,2024-09-16 16:59:29
406,barclayville,4.6797,-8.2339,25.74,79,93,3.5,LR,2024-09-16 16:59:30
407,nishinoomote,30.7333,131.0,28.31,76,10,5.94,JP,2024-09-16 16:59:32
408,labytnangi,66.6572,66.4183,15.43,88,100,1.71,RU,2024-09-16 16:59:33
409,whakatane,-37.9585,176.9854,9.17,88,42,0.89,NZ,2024-09-16 16:56:18
410,dos palos,36.9861,-120.6266,18.86,45,2,2.47,US,2024-09-16 16:59:37
411,al kharijah,25.4514,30.5464,33.79,31,0,4.94,EG,2024-09-16 16:59:38
412,waimea,20.0231,-155.6717,19.18,100,21,2.18,US,2024-09-16 16:59:39
413,at taraf,25.3628,49.725,38.3,43,0,4.41,SA,2024-09-16 16:59:40
414,patnanungan,14.7833,122.1833,25.05,91,100,5.38,PH,2024-09-16 16:59:41
415,watertown,42.3709,-71.1828,28.19,31,0,1.34,US,2024-09-16 16:59:42
416,bereznik,62.8551,42.7072,16.34,72,25,2.18,RU,2024-09-16 16:59:43
417,kuanda,56.3161,116.0806,1.67,73,32,1.66,RU,2024-09-16 16:59:45
418,villamontes,-21.25,-63.5,28.69,51,75,3.09,BO,2024-09-16 16:59:46
419,remire-montjoly,4.9167,-52.2667,34.02,59,75,5.14,GF,2024-09-16 16:59:47
420,hotan,37.0997,79.9269,23.31,26,10,1.69,CN,2024-09-16 16:59:48
421,altoona,40.5187,-78.3947,24.01,41,100,3.46,US,2024-09-16 16:59:49
422,la foa,-21.7108,165.8276,18.73,62,96,5.44,NC,2024-09-16 16:59:50
423,howrah,22.5892,88.3103,28.0,94,75,3.6,IN,2024-09-16 16:59:51
424,senanga,-16.1167,23.2667,29.89,12,3,2.98,ZM,2024-09-16 16:59:52
425,chuhar jamali,24.3895,67.9923,27.75,67,19,6.39,PK,2024-09-16 16:59:53
426,togur,58.3631,82.8265,3.32,80,28,0.98,RU,2024-09-16 16:59:55
427,kamen'-na-obi,53.7884,81.3423,4.63,72,98,2.76,RU,2024-09-16 16:59:56
428,nova sintra,14.8667,-24.7167,26.31,76,62,5.7,CV,2024-09-16 16:59:57
429,gunnedah,-30.9833,150.25,5.33,50,0,1.91,AU,2024-09-16 16:59:58
430,wenling,28.3669,121.36,26.24,91,98,0.85,CN,2024-09-16 16:59:59
431,al hadd,26.2456,50.6542,34.47,55,0,3.6,BH,2024-09-16 17:00:00
432,yeniseysk,58.4497,92.1703,0.39,83,52,1.04,RU,2024-09-16 17:00:01
433,changchun,43.88,125.3228,12.32,87,0,2.15,CN,2024-09-16 17:00:02
434,luganville,-15.5333,167.1667,23.79,88,100,3.77,VU,2024-09-16 17:00:04
435,ndele,8.4109,20.6473,22.96,95,90,0.63,CF,2024-09-16 17:00:05
436,ola,59.5833,151.2833,4.93,63,95,3.62,RU,2024-09-16 17:00:06
437,flin flon,54.7682,-101.865,15.91,77,40,2.57,CA,2024-09-16 17:00:07
438,cam ranh,11.9214,109.1591,24.98,94,75,2.57,VN,2024-09-16 17:00:08
439,faya-largeau,17.9257,19.1043,37.29,23,16,2.67,TD,2024-09-16 17:00:09
440,howard springs,-12.497,131.047,24.99,95,79,1.75,AU,2024-09-16 17:00:10
441,okeechobee,27.2439,-80.8298,32.01,66,0,3.6,US,2024-09-16 17:00:11
442,mashhad,36.297,59.6062,19.08,55,40,3.09,IR,2024-09-16 17:00:12
443,belmonte,-15.8631,-38.8828,26.91,61,7,3.89,BR,2024-09-16 16:58:26
444,peremyshlyany,49.6652,24.5585,13.19,85,100,0.9,UA,2024-09-16 17:00:15
445,kalmunai,7.4167,81.8167,28.83,71,100,1.52,LK,2024-09-16 17:00:16
446,camocim,-2.9022,-40.8411,32.51,49,1,8.18,BR,2024-09-16 17:00:17
447,praia,14.9215,-23.5087,29.3,65,75,7.2,CV,2024-09-16 17:00:18
448,marka,1.7159,44.7717,25.21,89,38,6.91,SO,2024-09-16 17:00:19
449,muzaffarabad,34.37,73.4711,20.28,59,0,2.15,PK,2024-09-16 17:00:20
450,kavieng,-2.5744,150.7967,27.83,80,81,4.41,PG,2024-09-16 17:00:22
451,thunder bay,48.4001,-89.3168,25.99,69,75,2.06,CA,2024-09-16 17:00:23
452,kudymkar,59.0173,54.656,14.69,80,78,1.68,RU,2024-09-16 17:00:24
453,fereydun kenar,36.6864,52.5225,23.97,54,41,3.43,IR,2024-09-16 17:00:25
454,momignies,50.0271,4.1652,16.17,80,73,5.27,BE,2024-09-16 17:00:26
455,nikolayevka,53.1257,47.2041,16.11,50,30,2.28,RU,2024-09-16 17:00:27
456,alaghsas,17.0187,8.0168,33.94,40,40,8.23,NE,2024-09-16 17:00:28
457,shalkar,47.8288,59.6258,18.28,33,52,12.01,KZ,2024-09-16 17:00:29
458,jiazi,22.8779,116.067,27.36,86,100,4.51,CN,2024-09-16 17:00:31
459,phon charoen,18.0333,103.1667,25.6,86,29,1.89,TH,2024-09-16 17:00:32
460,kimbe,-5.5502,150.1429,23.6,93,71,1.79,PG,2024-09-16 17:00:33
461,forster,-32.1667,152.5167,10.21,100,42,4.45,AU,2024-09-16 17:00:34
462,crucecita,-28.95,-58.9833,25.77,23,0,4.29,AR,2024-09-16 17:00:35
463,okhotsk,59.3833,143.3,6.48,75,99,2.58,RU,2024-09-16 17:00:36
464,akhty,41.4597,47.7312,11.03,76,89,0.23,RU,2024-09-16 17:00:37
465,san patricio,28.017,-97.5169,25.97,59,71,3.55,US,2024-09-16 16:56:50
466,pathein,16.7833,94.7333,25.44,89,33,2.57,MM,2024-09-16 17:00:39
467,shache,38.4167,77.2406,22.82,29,32,4.09,CN,2024-09-16 17:00:41
468,kasongo-lunda,-6.4667,16.8167,28.77,56,85,1.18,CD,2024-09-16 17:00:42
469,zubova polyana,54.0771,42.8372,20.03,43,71,2.05,RU,2024-09-16 17:00:43
470,northam,51.0333,-4.2167,17.56,73,78,4.41,GB,2024-09-16 17:00:44
471,broken hill,-31.95,141.4333,6.7,48,0,3.3,AU,2024-09-16 17:00:45
472,katsuura,35.1333,140.3,23.68,91,79,4.3,JP,2024-09-16 17:00:46
473,hithadhoo,-0.6,73.0833,29.09,74,100,4.55,MV,2024-09-16 17:00:47
474,zabid,14.1951,43.3152,32.99,41,100,4.7,YE,2024-09-16 17:00:48
475,guixi,28.2886,117.2133,26.11,80,84,1.3,CN,2024-09-16 17:00:50
476,caluula,11.9661,50.7569,28.95,73,2,3.09,SO,2024-09-16 17:00:51
477,tofol,5.3248,163.0078,28.99,72,44,5.19,FM,2024-09-16 17:00:52
478,san jose del monte,14.8167,121.1167,25.06,97,100,3.68,PH,2024-09-16 17:00:53
479,illizi,26.4833,8.4667,39.12,14,23,2.83,DZ,2024-09-16 17:00:54
480,pontes e lacerda,-15.2261,-59.3353,36.02,27,10,3.15,BR,2024-09-16 17:00:55
481,newman,37.3138,-121.0208,18.91,60,0,3.13,US,2024-09-16 17:00:56
482,pisco,-13.7,-76.2167,17.23,82,100,3.09,PE,2024-09-16 17:00:57
483,severnoye,56.3491,78.3619,4.11,81,13,2.81,RU,2024-09-16 17:00:58
484,okha,53.5739,142.9478,11.34,84,100,2.82,RU,2024-09-16 17:01:00
485,judendorf,47.1333,13.8,2.68,100,100,3.36,AT,2024-09-16 17:01:01
486,dubovka,49.0583,44.829,19.78,42,41,7.34,RU,2024-09-16 17:01:02
487,gardnerville ranchos,38.8882,-119.7413,13.9,34,75,5.66,US,2024-09-16 17:01:03
488,embrun,44.5639,6.4953,13.45,54,80,1.86,FR,2024-09-16 17:01:04
489,lamu,-2.2717,40.902,24.81,84,25,5.84,KE,2024-09-16 17:01:05
490,nako,31.8814,78.627,13.2,75,18,2.13,IN,2024-09-16 17:01:06
491,pasto,1.2136,-77.2811,20.09,53,66,3.58,CO,2024-09-16 17:01:08
492,miles city,46.4083,-105.8406,27.99,32,53,4.08,US,2024-09-16 17:01:09
493,terrace,54.5163,-128.6035,12.95,94,100,7.2,CA,2024-09-16 17:01:10
494,debark',13.1561,37.8981,10.55,90,98,1.6,ET,2024-09-16 17:01:11
495,ghat,24.9647,10.1728,36.32,19,60,3.48,LY,2024-09-16 17:01:12
496,el porvenir,13.7617,-87.3458,31.93,58,30,2.53,HN,2024-09-16 17:01:13
497,san luis de la loma,17.2706,-100.8939,30.55,69,100,1.69,MX,2024-09-16 17:01:14
498,unye,11.4502,13.962,28.99,67,100,3.72,NG,2024-09-16 17:01:15
499,xenia,39.6848,-83.9296,29.43,42,0,3.6,US,2024-09-16 17:01:16
500,wankaner,22.6167,70.9333,26.2,74,0,3.87,IN,2024-09-16 17:01:18
501,antsiranana,-12.2787,49.2917,23.09,76,4,8.65,MG,2024-09-16 17:01:19
502,puerto deseado,-47.7503,-65.8938,14.08,41,0,9.34,AR,2024-09-16 17:01:20
503,karangampel,-6.4622,108.4519,26.25,49,95,2.9,ID,2024-09-16 17:01:21
504,oak bay,48.4496,-123.3026,15.76,76,20,1.54,CA,2024-09-16 16:57:33
505,st. john's,47.5649,-52.7093,21.82,56,75,12.35,CA,2024-09-16 17:00:46
506,worthington,40.0931,-83.018,28.32,46,0,1.79,US,2024-09-16 17:01:26
507,ponte nelle alpi,46.1808,12.2833,14.97,81,100,0.45,IT,2024-09-16 17:01:27
508,skeldon,5.8833,-57.1333,33.73,46,3,3.3,GY,2024-09-16 17:01:28
509,nemuro,43.3236,145.575,15.88,83,100,7.21,JP,2024-09-16 17:01:29
510,manay,7.215,126.5397,25.87,80,100,2.97,PH,2024-09-16 17:01:30
511,weno,7.4515,151.8468,26.41,88,100,6.32,FM,2024-09-16 17:01:31
512,sos'va,59.1766,61.8558,9.49,66,0,2.37,RU,2024-09-16 17:01:33
513,talavera,15.6167,120.9333,22.61,97,100,2.86,PH,2024-09-16 17:01:34
514,manokwari,-0.8667,134.0833,26.76,83,100,1.3,ID,2024-09-16 17:01:35
515,turpan,42.9333,89.1667,27.03,21,0,1.74,CN,2024-09-16 17:01:36
516,bodo,67.28,14.405,13.3,80,40,5.66,NO,2024-09-16 17:01:37
517,morinville,53.8001,-113.652,15.88,75,20,3.6,CA,2024-09-16 17:01:38
518,bosansko grahovo,44.1794,16.3639,8.06,93,100,1.86,BA,2024-09-16 17:01:39
519,cockburn town,21.4612,-71.1419,29.3,79,94,7.79,TC,2024-09-16 17:01:40
520,constantia,44.1833,28.65,17.61,59,4,5.33,RO,2024-09-16 17:01:28
521,tougue,11.4667,-11.6,22.83,91,99,2.29,GN,2024-09-16 17:01:44
522,bang saphan,11.2126,99.5117,26.68,82,100,3.3,TH,2024-09-16 17:01:45
523,saint-philippe,-21.3585,55.7679,20.88,75,47,5.65,RE,2024-09-16 17:01:46
524,cullowhee,35.3137,-83.1765,24.71,60,75,1.54,US,2024-09-16 17:01:47
525,amga,60.8953,131.9608,-1.76,86,1,1.11,RU,2024-09-16 17:01:48
526,ellsworth,44.5434,-68.4195,25.7,69,0,5.66,US,2024-09-16 17:01:49
527,qamdo,31.1667,97.2333,8.07,74,100,2.28,CN,2024-09-16 17:01:25
528,monroeville,40.4212,-79.7881,25.03,35,0,3.6,US,2024-09-16 17:01:52
529,ko samui,9.5357,99.9357,27.64,79,100,9.04,TH,2024-09-16 16:58:10
530,cururupu,-1.8283,-44.8683,32.42,42,0,3.21,BR,2024-09-16 17:01:55
531,iwanai,42.9744,140.5089,16.24,93,100,2.29,JP,2024-09-16 17:01:56
532,fort bragg,35.139,-79.006,19.91,95,100,7.72,US,2024-09-16 17:01:57
533,lata,40.1629,-8.3327,31.94,11,19,4.48,PT,2024-09-16 17:01:58
534,lodja,-3.4833,23.4333,27.48,50,93,1.31,CD,2024-09-16 17:01:59
535,prieska,-29.6641,22.7474,20.86,19,0,4.04,ZA,2024-09-16 17:02:01
536,las tablas,7.7667,-80.2833,32.32,99,99,2.88,PA,2024-09-16 17:02:02
537,trenton,40.217,-74.7429,24.08,65,75,4.63,US,2024-09-16 17:02:03
538,palmeira,-25.4294,-50.0064,13.99,90,100,2.77,BR,2024-09-16 17:02:04
539,mezhdurechenskiy,59.6,65.9333,7.83,63,3,2.12,RU,2024-09-16 17:02:05
540,mesolongi,38.3702,21.4295,23.05,54,32,4.56,GR,2024-09-16 17:02:06
541,kristiansund,63.1115,7.732,12.36,82,75,4.63,NO,2024-09-16 17:02:09
542,bodaybo,57.8506,114.1933,1.13,93,73,1.6,RU,2024-09-16 17:02:10
543,sur,22.5667,59.5289,30.38,59,8,5.67,OM,2024-09-16 17:02:11
544,guerrero negro,27.9769,-114.0611,21.31,61,69,5.28,MX,2024-09-16 17:02:12
545,saskatoon,52.1168,-106.6345,16.99,63,75,2.06,CA,2024-09-16 17:02:13
546,kashgar,39.4547,75.9797,23.56,31,20,3.0,CN,2024-09-16 17:02:14
547,nohar,29.1833,74.7667,33.19,33,0,3.78,IN,2024-09-16 17:02:15
548,leninskoye,41.7589,69.3864,20.17,25,96,1.27,KZ,2024-09-16 17:02:16
549,naze,28.3667,129.4833,26.51,86,22,7.24,JP,2024-09-16 17:02:17
550,sikeston,36.8767,-89.5879,27.96,57,75,3.09,US,2024-09-16 17:02:19
551,belomorsk,64.5232,34.7668,11.76,52,13,2.47,RU,2024-09-16 17:02:03
552,fort st. john,56.2499,-120.8529,11.94,66,75,6.69,CA,2024-09-16 16:59:52
553,inayauan,9.9005,122.434,26.09,97,100,11.27,PH,2024-09-16 17:02:22
554,uzgen,40.7699,73.3007,18.95,26,83,2.06,KG,2024-09-16 17:02:23
555,glace bay,46.1969,-59.957,26.2,61,75,9.77,CA,2024-09-16 17:02:24
556,bathsheba,13.2167,-59.5167,32.34,70,40,4.63,BB,2024-09-16 17:02:25
557,minas de marcona,-15.2119,-75.1103,19.17,48,5,3.88,PE,2024-09-16 17:02:28
558,selfoss,63.9331,-20.9971,9.47,80,100,11.3,IS,2024-09-16 17:02:29
559,klichaw,53.4928,29.3352,19.11,35,2,3.66,BY,2024-09-16 17:02:30
560,tateyama,34.9833,139.8667,24.42,88,43,1.69,JP,2024-09-16 17:02:31
561,beyla,8.6833,-8.6333,24.99,85,52,1.35,GN,2024-09-16 17:02:32
562,kegeyli shahar,42.7767,59.6078,18.56,57,67,6.82,UZ,2024-09-16 17:02:04
563,palu,-0.8917,119.8707,23.86,95,77,1.68,ID,2024-09-16 17:02:34
564,antibes,43.5624,7.1278,22.86,55,0,3.6,FR,2024-09-16 17:02:35
565,port augusta,-32.5,137.7667,4.15,55,0,1.75,AU,2024-09-16 17:02:36
566,shingu,33.7333,135.9833,24.81,92,35,1.53,JP,2024-09-16 17:02:38
567,laramie,41.3114,-105.5911,23.94,31,1,1.34,US,2024-09-16 17:00:05
568,kiffa,16.6166,-11.4045,27.37,68,100,3.12,MR,2024-09-16 17:02:40
569,acapulco de juarez,16.8634,-99.8901,31.9,70,100,1.03,MX,2024-09-16 17:02:41
570,tabas,33.5959,56.9244,30.12,21,3,3.09,IR,2024-09-16 17:02:42
571,taloda,21.5667,74.2167,23.7,85,100,3.3,IN,2024-09-16 17:02:43
572,shira,54.4911,89.9531,0.21,94,86,1.74,RU,2024-09-16 17:02:44
573,falam,22.9167,93.6833,19.88,99,59,0.48,MM,2024-09-16 17:02:45
574,san andres,12.5847,-81.7006,32.01,74,20,4.63,CO,2024-09-16 17:02:47
